Feature_Name,Diameter,Center_Latitude,Center_Longitude,Northern_Latitude,Southern_Latitude,Eastern_Longitude,Western_Longitude,Feature_Type,Quad,Approval_Status,Origin
Abalos Colles,235.83,76.83,-71.65,78.78,74.81,-66.61,-75.46,"Collis, colles",mc01,Approved,"Named for classical albedo feature at 72N, 70W."
Abalos Mensa,129.18,81.17,-75.6,82.4,80.21,-69.48,-80.66,"Mensa, mensae",mc01,Approved,Classical albedo feature name.
Abalos Scopuli,109.16,80.72,-76.56,81.96,80.2,-69.48,-80.53,"Scopulus, scopuli",mc01,Approved,Classical albedo feature name.
Abalos Undae,442.74,78.52,-87.5,82.2,74.94,-76.97,-98.6,"Unda, undae",mc01,Approved,"Classical albedo feature at 72N, 70W."
Aban,4.28,15.91,111.1,15.94,15.87,111.14,111.06,"Crater, craters",mc14,Approved,Town in Russia.
Abus Vallis,60.99,-5.49,-147.2,-5.02,-5.99,-147.16,-147.28,"Vallis, valles",mc16,Approved,Classical name for Humber River in England.
Achar,5.36,45.43,123.16,45.48,45.39,123.23,123.1,"Crater, craters",mc07,Approved,Town in Uruguay.
Acheron Catena,421.77,37.47,-100.8,40.7,33.51,-98.29,-103.29,"Catena, catenae",mc03,Approved,"Named for classical albedo feature at 35N, 140W."
Acheron Fossae,703.11,38.27,-135.02,40.03,31.47,-129.08,-143.1,"Fossa, fossae",mc02,Approved,"From classical albedo feature at 35N, 140W."
Acidalia Colles,356.3,50.34,-23.09,52.96,48.42,-19.63,-28.23,"Collis, colles",mc04,Approved,From classical albedo feature name.
Acidalia Mensa,226.86,46.69,-25.34,48.69,45.03,-22.97,-28.19,"Mensa, mensae",mc04,Approved,From classical albedo feature name.
Acidalia Planitia,3505,49.76,-20.74,68.68,14.75,16.18,-54.88,"Planitia, planitiae",mc04,Approved,"From classical albedo feature at 44N, 21W."
Ada,2.09,-3.06,-3.22,-3.04,-3.08,-3.21,-3.24,"Crater, craters",mc19,Approved,"Town in Oklahoma, USA."
Adamas Labyrinthus,853,35.7,105.12,41.07,30.34,111.46,96.27,"Labyrinthus, labyrinthi",mc06,Approved,"Classical albedo feature name; ""A River of Diamonds""; today's River Sarbarnarekha in India."
Adams,90.22,30.91,163.1,31.68,30.15,163.99,162.22,"Crater, craters",mc07,Approved,Walter S.; American astronomer (1876-1956).
Aeolis,0,-4.94,145,-4.94,-4.94,145,145,Albedo Feature,mc23,Approved,Floating island where winds were kept in a cave.
Aeolis Chaos,201,-7.13,150.6,-6.42,-7.83,152.24,148.96,"Chaos, chaoses",mc23,Approved,Classical albedo feature name.
Aeolis Dorsa,459.17,-5.05,152.63,-1.03,-8.13,156.42,148.6,"Dorsum, dorsa",mc23,Approved,Classical albedo feature name.
Aeolis Mensae,785.09,-3.25,140.63,2.07,-6.56,146.95,135.33,"Mensa, mensae",mc23,Approved,Classical albedo feature name.
Aeolis Mons,88.99,-5.08,137.85,-4.46,-5.61,138.62,137.11,"Mons, montes",mc23,Approved,Classical albedo feature name.
Aeolis Palus,111.63,-4.47,137.42,-4.18,-5.39,138.65,136.75,"Palus, paludes",mc23,Approved,Classical albedo feature name.
Aeolis Planum,852.81,-1.14,144.76,4.4,-6.68,149.98,139.08,"Planum, plana",mc23,Approved,Classical albedo feature name.
Aeolis Serpens,538.55,-1.38,149.57,2.48,-4.9,152,147.68,"Serpens, serpentes",mc23,Approved,Classical albedo feature name.
Aeria,0,9.88,50,9.88,9.88,50,50,Albedo Feature,mc13,Approved,"Greek name for Egypt; ""far land of mist""."
Aesacus Dorsum,276.69,36.82,153.15,38.69,34.7,154.72,152.28,"Dorsum, dorsa",mc07,Approved,"From albedo feature at 45N, 205W."
Aetheria,0,39.67,130,39.67,39.67,130,130,Albedo Feature,mc07,Approved,Upper world; land of living.
Aethiopis,0,9.88,130,9.88,9.88,130,130,Albedo Feature,mc14,Approved,Countries of the Ethiopians on southern edge of the Earth.
Aganippe Fossa,537.16,-8.49,-126,-4.06,-12.85,-124.77,-126.86,"Fossa, fossae",mc17,Approved,Classical albedo feature name.
Agassiz,108.77,-69.88,-88.89,-68.97,-70.8,-86.2,-91.54,"Crater, craters",mc30,Approved,Jean L.; American naturalist (1807-1873).
Airy,43.05,-5.14,0.05,-4.77,-5.5,0.42,-0.31,"Crater, craters",mc20,Approved,George B.; British astronomer (1801-1892).
Airy-0,0.79,-5.07,0,-5.07,-5.08,0.01,-0.01,"Crater, craters",mc20,Approved,Small crater within crater Airy that defines zero degrees longitude on Mars.
Ajon,8.08,16.49,103.14,16.56,16.42,103.21,103.07,"Crater, craters",mc14,Approved,Town in Russia.
Aki,7.87,-35.46,-60.24,-35.4,-35.53,-60.16,-60.32,"Crater, craters",mc25,Approved,Town in Japan.
Aktaj,5.01,20.41,-46.49,20.45,20.37,-46.44,-46.53,"Crater, craters",mc10,Approved,Town in Russia.
Alamos,6.44,23.48,-37.12,23.54,23.43,-37.07,-37.18,"Crater, craters",mc11,Approved,Town in Mexico.
Alba Catena,144.86,35.04,-114.58,36.26,33.83,-114.56,-114.65,"Catena, catenae",mc03,Approved,Classical albedo name.
Alba Fossae,2072.02,49.39,-106.82,66.91,33.89,-95.92,-116.23,"Fossa, fossae",mc03,Approved,Classical albedo name.
Alba Mons,548.02,41.08,-110.71,45.63,36.53,-104.79,-116.29,"Mons, montes",mc03,Approved,Classical albedo feature name.
Albany,2.15,22.96,-49.02,22.98,22.94,-49,-49.04,"Crater, craters",mc10,Approved,American colonial town (New York).
Alba Patera,65.98,39.53,-109.18,39.94,39.14,-108.45,-109.88,"Patera, paterae",mc03,Approved,Classical albedo name.
Albi,9.07,-41.47,-35.01,-41.4,-41.55,-34.9,-35.11,"Crater, craters",mc26,Approved,Town in France.
Albor Fossae,155,18.09,150.78,18.6,17.74,151.95,149.43,"Fossa, fossae",mc15,Approved,"From albedo feature at 20N, 205W."
Albor Tholus,158.38,18.87,150.47,19.99,17.63,151.88,149.06,"Tholus, tholi",mc15,Approved,Classical albedo feature name.
Alexey Tolstoy,93.04,-47.44,125.34,-46.65,-48.22,126.5,124.18,"Crater, craters",mc29,Approved,Aleksey; Soviet writer (1882-1945).
Alga,18.72,-24.34,-26.68,-24.18,-24.5,-26.5,-26.85,"Crater, craters",mc19,Approved,Town in Kazakhstan.
Alitus,50,-34.91,-38.14,-34.51,-35.31,-37.84,-38.44,"Crater, craters",mc26,Approved,"(Alytus), town in Lithuania."
Allegheny Vallis,171.08,-9.01,-53.9,-8.41,-9.73,-52.79,-54.94,"Vallis, valles",mc18,Approved,"River in Pennsylvania, USA."
Alnif,23.99,-15.14,-31.09,-14.93,-15.33,-30.89,-31.32,"Crater, craters",mc19,Approved,Town in Morocco.
Alofi,43,9.84,-0.02,10.17,9.49,0.37,-0.37,"Crater, craters",mc11,Approved,Town in Niue.
Alpheus Colles,633.03,-39.38,61.53,-34.4,-44.51,66.5,56.68,"Collis, colles",mc28,Approved,"From albedo feature at 45S, 292W."
Al-Qahira Vallis,600,-18.23,162.41,-14.41,-21.79,165.36,159.61,"Vallis, valles",mc23,Approved,"Word for 'Mars' in Arabic, Indonesian, Malay."
Amazonis,0,0,-140,0,0,-140,-140,Albedo Feature,,Approved,Land of the Amazons; on the island Hesperia.
Amazonis Mensa,414.04,-1.98,-146.9,0.96,-4.09,-143.67,-149.74,"Mensa, mensae",mc16,Approved,Classical albedo feature name.
Amazonis Planitia,2809.04,25.75,-162.91,49.75,2.14,-140.58,-179.66,"Planitia, planitiae",mc08,Approved,Classical albedo feature name; home of the Amazons.
Amazonis Sulci,250.59,-2.15,-143.71,-0.23,-4.15,-143.38,-147.25,"Sulcus, sulci",mc16,Approved,Albedo feature name; home of the Amazons.
Amenthes,0,4.94,110,4.94,4.94,110,110,Albedo Feature,mc14,Approved,Egyptian name for place where souls of the dead go.
Amenthes Cavi,1330.5,16.23,114.52,18.9,12.29,125.84,102.98,"Cavus, cavi",mc14,Approved,Classical albedo feature name.
Amenthes Fossae,850,9.07,102.68,13.73,2.17,107.28,96.97,"Fossa, fossae",mc14,Approved,Classical albedo feature name.
Amenthes Planum,953,3.4,105.92,9.2,-2.17,111.93,99.09,"Planum, plana",mc14,Approved,Classical albedo feature name.
Amenthes Rupes,335.25,1.51,110.68,3.58,0.09,112.98,108.83,"Rupes, rupēs",mc14,Approved,Classical albedo feature name.
Amphitrites Patera,129.8,-58.7,60.87,-57.64,-59.8,62.97,58.75,"Patera, paterae",mc28,Approved,Mare Amphitrites; classical albedo feature name.
Amsterdam,1.66,23,-47,23.02,22.99,-46.99,-47.02,"Crater, craters",mc10,Approved,Dutch port.
Andapa,11,-5.33,-4.73,-5.24,-5.42,-4.64,-4.82,"Crater, craters",mc19,Approved,Town in Madagascar.
Angelica,3.5,18.65,76.95,18.68,18.62,76.99,76.92,"Crater, craters",mc13,Approved,"Town in New York, USA."
Angu,2.08,20.01,105.64,20.03,20,105.66,105.62,"Crater, craters",mc14,Approved,Town in Zaire.
Angustus Labyrinthus,67.52,-81.62,-63.39,-81.16,-82.18,-61.41,-66.59,"Labyrinthus, labyrinthi",mc30,Approved,Classical albedo feature name.
Aniak,50.97,-31.84,-69.56,-31.47,-32.21,-69.06,-70.06,"Crater, craters",mc25,Approved,"Town in Alaska, USA."
Anio Valles,54,37.75,55.89,38.01,37.46,56.22,55.63,"Vallis, valles",mc05,Approved,Classical river in Italy; modern Aniene and Teverone rivers.
Annapolis,1.11,23.16,-47.73,23.17,23.16,-47.72,-47.74,"Crater, craters",mc10,Approved,American colonial town (Maryland).
Anseris Mons,52.51,-29.81,86.65,-29.49,-30.16,87.18,86.14,"Mons, montes",mc21,Approved,From albedo feature Anseris Fons.
Antoniadi,400.95,21.38,60.83,24.76,18,64.47,57.2,"Crater, craters",mc13,Approved,Eugène Michael; Turkish-born French astronomer (1870-1944).
Aonia Mons,27.07,-53.33,-87.92,-53.16,-53.48,-87.55,-88.32,"Mons, montes",mc25,Approved,Classical albedo feature name.
Aonia Planum,563.45,-57.9,-78.67,-53.11,-62.15,-71.11,-88.24,"Planum, plana",mc25,Approved,Classical albedo feature name.
Aonia Terra,3873.48,-60.2,-97.05,-30.8,-80.54,-60.25,-162.88,"Terra, terrae",mc25,Approved,Classical albedo feature name.
Aonia Tholus,53.69,-59.04,-80.04,-58.74,-59.37,-79.09,-80.86,"Tholus, tholi",mc25,Approved,Classical albedo feature name.
Aonium Sinus,0,-44.66,-105,-44.66,-44.66,-105,-105,Albedo Feature,mc25,Approved,"Named for Aonides, or Muses."
Apia,10.06,-37.28,89.02,-37.2,-37.37,89.12,88.91,"Crater, craters",mc28,Approved,Town in Samoa.
Apollinaris Mons,275.4,-9.17,174.79,-6.88,-11.47,176.4,172.66,"Mons, montes",mc23,Approved,Classical albedo feature name. 
Apollinaris Patera,89.6,-8.57,174.18,-7.92,-9.22,174.91,173.43,"Patera, paterae",mc23,Approved,Classical albedo feature name.
Apollinaris Sulci,188.64,-11.06,177.47,-9.47,-12.65,178.8,176.21,"Sulcus, sulci",mc23,Approved,"Albedo feature at 5S, 187W."
Apollinaris Tholus,32.39,-17.64,175.75,-17.38,-17.91,176.04,175.47,"Tholus, tholi",mc23,Approved,Albedo feature name.
Apollo Patera,24,17.94,-133.55,18.09,17.78,-133.36,-133.73,"Patera, paterae",mc09,Approved,"Greek god of light, poetry, music and arts, one of the Olympian gods, son of Zeus."
Apsus Vallis,121.56,34.91,134.99,35.78,33.99,135.52,134.66,"Vallis, valles",mc07,Approved,"Classical river in ancient Macedonia, present-day Greece."
Apt,9.57,39.88,-9.47,39.96,39.8,-9.36,-9.57,"Crater, craters",mc04,Approved,Town in France.
Arabia,0,19.78,30,19.78,19.78,30,30,Albedo Feature,mc12,Approved,Country bordering on Aeria (Egypt).
Arabia Terra,4851.74,21.25,5.72,45.36,-18.07,49.44,-29.69,"Terra, terrae",mc12,Approved,Classical albedo feature name.
Arago,152.35,10.22,29.93,11.51,8.94,31.23,28.62,"Crater, craters",mc12,Approved,Dominique F.; French astronomer (1786-1853).
Aram Chaos,283.81,2.52,-22.39,5.17,0.34,-19.28,-23.55,"Chaos, chaoses",mc11,Approved,Classical albedo feature name.
Aram Dorsum,83.31,7.8,-11.24,8.3,7.76,-10.76,-11.81,"Dorsum, dorsa",mc11,Approved,Classical albedo feature name.
Arandas,24.76,42.41,-15.03,42.62,42.2,-14.74,-15.3,"Crater, craters",mc04,Approved,Town in Mexico.
Arcadia,0,44.66,-100,44.66,44.66,-100,-100,Albedo Feature,mc03,Approved,Mountainous region in southern Greece.
Arcadia Dorsa,1952.65,55.9,-137.56,66.81,39.45,-114.42,-157.51,"Dorsum, dorsa",mc02,Approved,"Named for classical albedo feature at 45N, 120W."
Arcadia Planitia,2245,49.02,-171.85,64.17,33.87,-149.57,165.86,"Planitia, planitiae",mc02,Approved,"From classical albedo feature at 45N, 120W."
Arda Valles,173.67,-20.4,-32.31,-19.47,-21.38,-30.86,-33.92,"Vallis, valles",mc19,Approved,Ancient European river (Bulgaria).
Arena Colles,580.12,24.63,82.93,29.5,19.75,87.02,79.66,"Collis, colles",mc13,Approved,"Classical albedo feature at 13N, 294W."
Arena Dorsum,372.03,12.71,68.94,15.65,9.68,69.03,68.06,"Dorsum, dorsa",mc13,Approved,Classical albedo feature name.
Ares Vallis,1757.67,10.29,-25.61,20.82,0.33,-17.24,-36,"Vallis, valles",mc11,Approved,Word for 'Mars' in Greek.
Argas,3.55,23.33,-50.17,23.36,23.3,-50.14,-50.2,"Crater, craters",mc10,Approved,Town in Russia.
Argentea Planum,1370.64,-72.49,-61.67,-63.86,-81.79,-22.11,-86.07,"Planum, plana",mc30,Approved,Classical albedo feature name.
Argyre,0,-44.66,-25,-44.66,-44.66,-25,-25,Albedo Feature,mc26,Approved,"""Silver"" Island at mouth of Ganges River; present-day Arakan, Burma."
Argyre Cavi,72.33,-48.31,-40.12,-47.74,-48.94,-39.41,-40.89,"Cavus, cavi",mc26,Approved,Albedo name.
Argyre Mons,60.58,-50.37,-48.09,-49.87,-50.89,-47.42,-48.73,"Mons, montes",mc26,Approved,Classical albedo feature name.
Argyre Planitia,892.93,-49.84,-43.31,-42.44,-57.29,-33.38,-53.88,"Planitia, planitiae",mc26,Approved,Classical albedo feature name.
Argyre Rupes,335.42,-62.15,-68.75,-59.88,-64.43,-65.74,-71.42,"Rupes, rupēs",mc25,Approved,Classical albedo feature name.
Ariadnes Colles,188.01,-34.5,172.78,-33.2,-36.13,174.81,170.97,"Collis, colles",mc29,Approved,Classical albedo feature name.
Arica,15.77,-23.8,110.24,-23.67,-23.93,110.39,110.09,"Crater, craters",mc22,Approved,Town in Colombia.
Arima,53.59,-15.84,-63.68,-15.39,-16.3,-63.21,-64.14,"Crater, craters",mc18,Approved,Town in Trinidad and Tobago.
Arimanes Rupes,192.67,-9.84,-147.7,-8.31,-11.33,-147.15,-147.84,"Rupes, rupēs",mc16,Approved,Albedo feature; classical Persian deity of wickedness.
Arkhangelsky,116.83,-41.09,-24.79,-40.1,-42.07,-23.47,-26.09,"Crater, craters",mc26,Approved,A.D.; Russian geologist.
Arnon,0,47.66,25,47.66,47.66,25,25,Albedo Feature,mc05,Approved,"Classical name for present El-Mojib River, Jordan."
Arnus Vallis,311.61,13.97,70.61,16.38,11.95,71.24,69.5,"Vallis, valles",mc13,Approved,"Classical and present day Arno River in Tuscany, Italy (previously named Arena Rupes)."
Aromatum Chaos,72.8,-1.03,-42.97,-0.71,-1.52,-42.36,-43.58,"Chaos, chaoses",mc19,Approved,Classical albedo feature name.
Arrhenius,122.72,-40.04,122.71,-39.01,-41.08,124.06,121.35,"Crater, craters",mc29,Approved,Svante; Swedish physical chemist (1859-1927).
Arsia Chasmata,97.06,-7.47,-119.35,-6.67,-8.27,-118.63,-120.1,"Chasma, chasmata",mc17,Approved,Albedo name.
Arsia Mons,470,-8.26,-120.09,-4.72,-11.57,-116.18,-123.73,"Mons, montes",mc17,Approved,Arsia Silva-classical albedo feature name.
Arsia Sulci,500,-6.29,-129.81,-2.37,-10.76,-126.03,-130.51,"Sulcus, sulci",mc17,Approved,Albedo name.
Arsinoes Chaos,200.08,-7.66,-27.92,-6.37,-9.29,-26.08,-29.05,"Chaos, chaoses",mc19,Approved,Daughter of Ptolomy Lagun and Bernice.
Arta,3.96,21.38,-54.29,21.42,21.35,-54.25,-54.32,"Crater, craters",mc10,Approved,Town in Russia.
Artik,5.36,-34.8,130.98,-34.76,-34.85,131.04,130.93,"Crater, craters",mc29,Approved,Town in Armenia.
Artynia Catena,279.28,47.69,-119.45,50.02,45.36,-119.44,-119.7,"Catena, catenae",mc03,Approved,"Named for classical albedo feature at 54N, 137W."
Asau,25.05,-3.63,154.68,-3.43,-3.83,154.89,154.47,"Crater, craters",mc23,Approved,Village in Tuvalu.
Ascraeus Chasmata,105.2,8.77,-105.63,9.58,7.77,-104.74,-106.43,"Chasma, chasmata",mc09,Approved,Classical albedo name.
Ascraeus Mensa,34.86,11.72,-107.89,12.03,11.44,-107.74,-108.06,"Mensa, mensae",mc09,Approved,Classical albedo name.
Ascraeus Mons,456.4,11.92,-104.08,15.66,8.18,-101,-107.51,"Mons, montes",mc09,Approved,Ascraeus Lacus-classical albedo feature name.
Ascraeus Sulci,138.7,12.06,-108.75,13.15,11.02,-107.71,-109.14,"Sulcus, sulci",mc09,Approved,Classical albedo name.
Ascuris Planum,617.66,40.59,-80.78,43.94,36.28,-73.76,-86.24,"Planum, plana",mc03,Approved,Classical albedo name.
Asimov,80.82,-46.97,4.93,-46.29,-47.65,5.92,3.92,"Crater, craters",mc27,Approved,Isaac; American biochemist and writer (1920-1992).
Asopus Vallis,40.82,-4.29,-149.61,-4.01,-4.62,-149.46,-149.63,"Vallis, valles",mc16,Approved,"Classical name for modern Hagios River, Greece."
Aspen,18.48,-21.39,-23.15,-21.23,-21.54,-22.98,-23.31,"Crater, craters",mc19,Approved,"Town in Colorado, USA."
Aspledon Undae,215.2,73.06,-50.35,75.14,71.47,-44.96,-54.17,"Unda, undae",mc01,Approved,Classical albedo feature name.
Astapus Colles,597,35.46,88.08,38.35,31.35,92.67,81.77,"Collis, colles",mc06,Approved,"From albedo feature at 35N, 269W."
Athabasca Valles,270,8.54,155.01,10.04,7.22,156.78,153.17,"Vallis, valles",mc15,Approved,River in Canada. (Changed from Athabasca Vallis.)
Athena Patera,19,18.74,-132.82,18.88,18.59,-132.67,-132.98,"Patera, paterae",mc09,Approved,"Greek goddess of wisdom, one of the Olympians, daughter of Zeus."
Atlantis Chaos,181.37,-34.28,-177.31,-32.76,-35.78,-175.88,-179.06,"Chaos, chaoses",mc24,Approved,"From albedo feature at 30N, 173W."
Atlantis Mons,105,-28.71,-175.23,-27.88,-29.7,-174.28,-176.08,"Mons, montes",mc16,Approved,"Classical albedo feature, Atlantis."
Atrax Fossa,34.42,38.19,-88.98,38.37,38.05,-88.69,-89.3,"Fossa, fossae",mc03,Approved,Classical town.
Auce,37.01,-27.17,80.14,-26.85,-27.48,80.48,79.8,"Crater, craters",mc21,Approved,Town in Latvia.
Auki,40,-15.76,96.87,-15.44,-16.08,97.21,96.54,"Crater, craters",mc22,Approved,Town in the Solomon Islands.
Auqakuh Vallis,347,30.25,60.41,32.5,27.36,61.9,59.86,"Vallis, valles",mc06,Approved,Word for 'Mars' in Quechua (Inca).
Aureum Chaos,351.03,-3.89,-26.96,-1.27,-6.47,-24.27,-30.08,"Chaos, chaoses",mc19,Approved,Classical albedo feature name.
Aurorae Chaos,713.92,-8.47,-34.81,-4.67,-12.22,-28.89,-40.87,"Chaos, chaoses",mc19,Approved,Classical albedo name.
Aurorae Planum,564.49,-10.41,-48.62,-8.56,-14.17,-43.63,-53.05,"Planum, plana",mc18,Approved,Classical albedo feature name.
Aurorae Sinus,0,-14.83,-50,-14.83,-14.83,-50,-50,Albedo Feature,mc18,Approved,"""Bay of Rosy Dawn""; Aurora held back the dawn."
Ausonia,0,-39.67,110,-39.67,-39.67,110,110,Albedo Feature,mc28,Approved,Country of the Aruncii (Ausones in Greek).
Ausonia Cavus,49.5,-31.92,96.55,-31.51,-32.33,96.92,96.14,"Cavus, cavi",mc28,Approved,Albedo feature Ausonia.
Ausonia Mensa,102.51,-30.02,97.72,-29.57,-30.55,98.7,96.69,"Mensa, mensae",mc28,Approved,Albedo feature name.
Ausonia Montes,333.13,-25.42,99.04,-23.14,-28.79,102.07,96.03,"Mons, montes",mc22,Approved,Albedo feature name.
Australe Lingula,436.33,-84.05,68.56,-80.19,-87.64,95.5,28.4,"Lingula, lingulae",mc30,Approved,Classical albedo feature name.
Australe Mensa,172,-86.88,-2.76,-85.5,-87.97,19.8,-21.2,"Mensa, mensae",mc30,Approved,Classical albedo feature name.
Australe Montes,411.67,-80.19,14.05,-76.39,-83.17,30.5,7.54,"Mons, montes",mc30,Approved,Classical albedo feature name.
Australe Scopuli,504.58,-83.48,-112.94,-79.19,-86.23,-82.29,-157.88,"Scopulus, scopuli",mc30,Approved,Classical albedo feature name.
Australe Sulci,357.91,-84.99,133.06,-82.42,-87.3,168.19,118.46,"Sulcus, sulci",mc30,Approved,Classical albedo feature name.
Auxo Dorsum,82.05,-55.72,-41.76,-55.21,-55.87,-41.08,-42.89,"Dorsum, dorsa",mc26,Approved,One of the Graces.
Avan,3.3,-10.97,-69.77,-10.94,-11,-69.74,-69.8,"Crater, craters",mc18,Approved,Village in Armenia.
Avarua,49.99,-35.93,109.66,-35.5,-36.35,110.19,109.15,"Crater, craters",mc28,Approved,Town in the Cook Islands.
Aveiro,9.11,21.28,-78.97,21.36,21.2,-78.89,-79.05,"Crater, craters",mc10,Approved,Town in Portugal.
Avernus Cavi,115,-3.72,172.52,-2.84,-4.75,172.92,171.91,"Cavus, cavi",mc23,Approved,"Named for albedo feature at 10S, 195W."
Avernus Colles,238.7,-1.73,171.02,0.33,-3.79,172.9,169.85,"Collis, colles",mc23,Approved,"Named for albedo feature at 10S, 195W."
Avernus Dorsa,296.59,-6.03,170.9,-3.53,-8.53,171.96,169.9,"Dorsum, dorsa",mc23,Approved,"From albedo feature at 4S, 190W."
Avernus Rupes,223.32,-9.2,172.8,-7.47,-10.85,173.68,172.65,"Rupes, rupēs",mc23,Approved,"From albedo feature Avernus at 10S, 195W."
Avire,6.85,-40.82,-159.76,-40.76,-40.88,-159.68,-159.83,"Crater, craters",mc24,Approved,Town in the Republic of Vanuatu.
Axius Valles,435.95,-54.53,70.72,-51.03,-57.98,74.77,65.4,"Vallis, valles",mc28,Approved,Ancient European River (Vardar River of Greece).
Ayacucho,2.59,38.18,-92.03,38.2,38.16,-92,-92.05,"Crater, craters",mc03,Approved,Town in Bolivia.
Ayr,12.74,-38.98,91.58,-38.88,-39.09,91.72,91.45,"Crater, craters",mc28,Approved,"Town in Queensland, Australia."
Azul,19.53,-42.07,-42.51,-41.9,-42.23,-42.29,-42.73,"Crater, craters",mc26,Approved,Town in Argentina.
Azusa,39.25,-5.48,-40.32,-5.15,-5.81,-39.98,-40.65,"Crater, craters",mc19,Approved,"Town in California, USA."
Babakin,76.66,-36,-71.44,-35.36,-36.65,-70.64,-72.24,"Crater, craters",mc25,Approved,Soviet builder of unmanned space stations (1914-1970).
Bacht,7.86,18.66,102.7,18.72,18.59,102.77,102.63,"Crater, craters",mc14,Approved,Town in Uzbekistan.
Bacolor,21.58,32.99,118.6,33.18,32.81,118.82,118.38,"Crater, craters",mc06,Approved,Town in the Philippines.
Bada,2.52,20.35,-50.69,20.37,20.33,-50.67,-50.71,"Crater, craters",mc10,Approved,Town in Russia.
Badwater,33.14,-32.79,62.14,-32.51,-33.08,62.46,61.83,"Crater, craters",mc28,Approved,"Town in California, USA."
Baetis Chaos,66.66,-0.17,-60.4,0.38,-0.73,-60.04,-60.86,"Chaos, chaoses",mc18,Approved,Classical albedo feature name.
Baetis Chasma,92.21,-4.29,-64.87,-3.68,-4.97,-64.41,-65.5,"Chasma, chasmata",mc18,Approved,"From classical albedo feature at 5S, 60W; changed from Iamunae Chasma."
Baetis Labēs,88,-3.67,-71.46,-3.01,-4.36,-70.77,-72.27,"Labes, labēs",mc18,Approved,"Classical albedo feature, Baetis."
Baetis Mensa,181.1,-5.17,-72.45,-3.82,-6.72,-71.72,-73.04,"Mensa, mensae",mc18,Approved,"From albedo feature at 7S, 63W."
Bahn,11.93,-3.5,-43.32,-3.4,-3.6,-43.21,-43.41,"Crater, craters",mc19,Approved,Town in Liberia.
Bahram Vallis,269.68,20.42,-57.14,21.57,20.08,-55.52,-59.45,"Vallis, valles",mc10,Approved,Word for 'Mars' in Persian.
Bak,3.13,18.05,103.78,18.08,18.02,103.81,103.76,"Crater, craters",mc14,Approved,Town in Hungary.
Bakhuysen,152.9,-22.97,15.73,-21.68,-24.26,17.13,14.33,"Crater, craters",mc20,Approved,Hendrik G.; Dutch astronomer (1838-1923).
Balboa,21.95,-3.82,-33.88,-3.64,-4.01,-33.69,-34.06,"Crater, craters",mc19,Approved,"Town in the Republic of Panama, formerly within the US Panama Canal Zone."
Baldet,181.31,22.76,65.48,24.29,21.23,67.14,63.82,"Crater, craters",mc13,Approved,Fernand; French astronomer (1885-1964).
Balta,17.28,-23.82,-26.55,-23.67,-23.96,-26.39,-26.71,"Crater, craters",mc19,Approved,Town in Ukraine.
Baltia,0,59.71,-50,59.71,59.71,-50,-50,Albedo Feature,mc04,Approved,Name of large island in northern Europe where amber was found.
Baltisk,50.75,-42.27,-54.66,-41.84,-42.7,-54.07,-55.23,"Crater, craters",mc26,Approved,Town in Russia.
Balvicar,20.35,16.2,-53.24,16.37,16.03,-53.06,-53.42,"Crater, craters",mc10,Approved,Town in Scotland.
Bam,6.8,-25.79,115.67,-25.73,-25.85,115.73,115.61,"Crater, craters",mc22,Approved,Town in Kermān province in Iran.
Bamba,22.57,-3.36,-41.59,-3.17,-3.55,-41.4,-41.78,"Crater, craters",mc19,Approved,Town in Zaire.
Bamberg,55.7,39.71,-3.1,40.18,39.24,-2.48,-3.7,"Crater, craters",mc04,Approved,Town in Germany.
Banes,41,10.76,-4.32,11.1,10.42,-3.99,-4.66,"Crater, craters",mc11,Approved,Town in Cuba.
Banff,5,17.51,-30.71,17.55,17.47,-30.66,-30.75,"Crater, craters",mc11,Approved,"Town in Alberta, Canada."
Banh,14.4,19.42,-55.5,19.54,19.3,-55.36,-55.62,"Crater, craters",mc10,Approved,Town in Burkina Faso (formerly Upper Volta).
Baphyras Catena,95.52,38.83,-84.16,39.18,38.42,-83.23,-85.03,"Catena, catenae",mc03,Approved,Classical river.
Bar,2.06,-25.25,-19.5,-25.23,-25.26,-19.48,-19.52,"Crater, craters",mc19,Approved,Town in Ukraine.
Barabashov,120.67,47.33,-68.75,48.34,46.31,-67.24,-70.25,"Crater, craters",mc03,Approved,Nikolay P.; Russian astronomer (1894-1971).
Barnard,121.11,-61.06,61.59,-60.04,-62.09,63.7,59.48,"Crater, craters",mc28,Approved,Edward E.; American astronomer (1857-1923).
Baro,16.93,-24.8,110.7,-24.66,-24.95,110.86,110.54,"Crater, craters",mc22,Approved,Town in Nigeria.
Barsukov,68.45,7.97,-29.02,8.55,7.4,-28.43,-29.59,"Crater, craters",mc11,Approved,Valery L.; Soviet geochemist and planetologist (1928-1992).
Barth,111,7.44,25.67,8.37,6.51,26.6,24.73,"Crater, craters",mc12,Approved,Charles A.; American atmospheric physicist (1930-2014).
Bashkaus Valles,246.93,-25.68,-3.26,-23.51,-27.69,-1.83,-5,"Vallis, valles",mc19,Approved,"River in the Altai Republic, Russia."
Basin,15.53,17.82,107,17.95,17.69,107.14,106.86,"Crater, craters",mc14,Approved,"Town in Wyoming, USA."
Batoka,14.96,-7.55,-36.65,-7.43,-7.68,-36.53,-36.78,"Crater, craters",mc19,Approved,Town in Zambia.
Batoş,17.33,21.5,-29.5,21.65,21.36,-29.34,-29.66,"Crater, craters",mc11,Approved,Town in Romania.
Batson,75,-28.91,84.15,-28.24,-29.54,84.85,83.41,"Crater, craters",mc21,Approved,Raymond Milner; American geologist and photogrammetrist (1931-2013).
Baucau,17.94,-28.37,-55.1,-28.22,-28.52,-54.93,-55.28,"Crater, craters",mc18,Approved,Town in Timor-Leste.
Baum,62,-24.72,28.3,-24.22,-25.22,28.88,27.72,"Crater, craters",mc20,Approved,William Alvin; American astronomer (1924-2012).
Baykonyr,3.9,46.41,132.68,46.44,46.38,132.73,132.63,"Crater, craters",mc07,Approved,Soviet launch site.
Bazas,16.43,-27.78,93.38,-27.64,-27.92,93.54,93.23,"Crater, craters",mc22,Approved,Town in France.
Becquerel,165.23,21.89,-7.94,23.29,20.5,-6.43,-9.44,"Crater, craters",mc11,Approved,Antoine H.; French physicist (1852-1908).
Beer,85.5,-14.47,-8.17,-13.75,-15.19,-7.42,-8.91,"Crater, craters",mc19,Approved,Wilhelm; German astronomer (1797-1850).
Beloha,31.74,-39.58,56.71,-39.31,-39.84,57.06,56.37,"Crater, craters",mc27,Approved,Town in Madagascar.
Beltra,7.17,18.01,102.4,18.07,17.95,102.47,102.34,"Crater, craters",mc14,Approved,Town in Ireland.
Belva,0.9,18.48,77.38,18.49,18.47,77.39,77.37,"Crater, craters",mc13,Approved,"Town in West Virginia, USA."
Belyov,0.2,-45.02,-158.01,-45.02,-45.02,-158.01,-158.01,"Crater, craters",mc24,Approved,"(Belev) Town in Tula region, Russia."
Belz,10.21,21.57,-43.23,21.66,21.49,-43.13,-43.32,"Crater, craters",mc11,Approved,Town in Ukraine.
Bend,3.7,-22.4,-27.74,-22.37,-22.43,-27.7,-27.77,"Crater, craters",mc19,Approved,"Town in Oregon, USA."
Bentham,11.36,-55.78,-40.55,-55.68,-55.88,-40.38,-40.72,"Crater, craters",mc26,Approved,Town in England.
Bentong,10.32,-22.31,-19.04,-22.22,-22.39,-18.95,-19.13,"Crater, craters",mc19,Approved,Town in Malaysia.
Bernard,128.1,-23.24,-154.21,-22.16,-24.32,-153.03,-155.38,"Crater, craters",mc16,Approved,P.; French atmospheric scientist.
Berseba,36.83,-4.4,-37.6,-4.09,-4.71,-37.28,-37.91,"Crater, craters",mc19,Approved,Town in Namibia.
Beruri,45.12,5.27,81.24,5.65,4.89,81.62,80.85,"Crater, craters",mc13,Approved,Town in Brazil.
Betio,32.44,-23.13,-78.65,-22.87,-23.4,-78.35,-78.95,"Crater, craters",mc18,Approved,Village in Kiribati.
Bhor,5.73,41.75,134.53,41.8,41.7,134.6,134.47,"Crater, craters",mc07,Approved,Town in India.
Bianchini,70.71,-63.85,-95.29,-63.26,-64.45,-93.93,-96.63,"Crater, craters",mc25,Approved,Francesco; Italian astronomer (1662-1729).
Biblis Patera,53.65,2.36,-123.82,2.81,1.9,-123.36,-124.27,"Patera, paterae",mc09,Approved,Classical albedo feature name.
Biblis Tholus,168.6,2.52,-124.38,3.85,1.38,-123.02,-125.74,"Tholus, tholi",mc09,Approved,Classical albedo feature name.
Bigbee,20.86,-24.78,-34.75,-24.6,-24.95,-34.55,-34.94,"Crater, craters",mc19,Approved,"Town in Mississippi, USA."
Bira,2.7,25.1,-45.54,25.12,25.08,-45.52,-45.57,"Crater, craters",mc10,Approved,Town in Russia.
Bise,9.21,20.22,-56.83,20.3,20.15,-56.74,-56.91,"Crater, craters",mc10,Approved,Town in Okinawa.
Bison,15.28,-26.31,-29.15,-26.17,-26.43,-29,-29.29,"Crater, craters",mc19,Approved,"Town in Kansas, USA."
Bjerknes,88.64,-43.01,171.48,-42.26,-43.76,172.51,170.46,"Crater, craters",mc29,Approved,Vilhelm F.; Norwegian physicist (1862-1951).
Bland,6.63,18.3,108.76,18.35,18.24,108.81,108.7,"Crater, craters",mc14,Approved,"Town in Missouri, USA."
Bled,7.69,21.58,-31.46,21.65,21.52,-31.39,-31.53,"Crater, craters",mc11,Approved,Town in Slovenia.
Blitta,12.95,-25.9,-20.96,-25.79,-26,-20.84,-21.08,"Crater, craters",mc19,Approved,Town in Togo.
Blois,11.58,23.6,-55.85,23.7,23.5,-55.74,-55.96,"Crater, craters",mc10,Approved,Town in France.
Bluff,6.75,23.47,110.03,23.52,23.41,110.09,109.97,"Crater, craters",mc14,Approved,Town in New Zealand.
Blunck,66.49,-27.23,-36.9,-26.7,-27.76,-36.26,-37.53,"Crater, craters",mc19,Approved,Jürgen; German historian (1935-2008).
Boeddicker,107.12,-14.82,162.49,-13.92,-15.73,163.42,161.56,"Crater, craters",mc23,Approved,Otto; German astronomer (1853-1937).
Bogia,37.68,-44.31,83.27,-43.99,-44.63,83.71,82.83,"Crater, craters",mc28,Approved,Town in Papua New Guinea.
Bogra,21.31,-24.16,-28.8,-23.98,-24.34,-28.6,-29,"Crater, craters",mc19,Approved,Town in Bangladesh.
Bok,7.34,20.58,-31.6,20.64,20.52,-31.54,-31.67,"Crater, craters",mc11,Approved,Town in New Guinea.
Bole,8.54,25.35,-53.99,25.43,25.28,-53.91,-54.07,"Crater, craters",mc10,Approved,Town in Ghana.
Bombala,37.14,-27.6,106.13,-27.29,-27.92,106.49,105.78,"Crater, craters",mc22,Approved,"Town in New S. Wales, Australia."
Bond,104.69,-32.79,-35.94,-31.91,-33.68,-34.88,-36.98,"Crater, craters",mc26,Approved,George P.; American astronomer (1825-1865).
Bonestell,40.67,42,-30.39,42.34,41.66,-29.92,-30.85,"Crater, craters",mc04,Approved,Chesley; American space artist (1888-1986).
Boola,17.25,81.26,-105.19,81.41,81.12,-104.23,-106.16,"Crater, craters",mc01,Approved,Town in Guinea.
Bopolu,18.89,-2.96,-6.3,-2.8,-3.12,-6.14,-6.46,"Crater, craters",mc19,Approved,Town in Liberia.
Bor,4.28,18.17,-33.68,18.2,18.13,-33.64,-33.72,"Crater, craters",mc11,Approved,Town in Russia.
Bordeaux,2.01,23.13,-48.89,23.15,23.12,-48.87,-48.91,"Crater, craters",mc10,Approved,French port.
Boreales Scopuli,873,88.88,-90.16,90,81.75,0,0,"Scopulus, scopuli",mc01,Approved,Classical albedo feature name.
Boreosyrtis,0,54.68,70,54.68,54.68,70,70,Albedo Feature,mc06,Approved,"Northern continuation of Nilosyrtis; ""Syrtis of the north."""
Boreum Cavus,62.13,84.64,-20.15,85.09,84.09,-16.13,-27.32,"Cavus, cavi",mc01,Approved,Classical albedo feature name.
Boru,10.87,-24.34,-27.87,-24.25,-24.43,-27.77,-27.97,"Crater, craters",mc19,Approved,Town in Russia.
Bosporos Planum,729.58,-33.87,-64.49,-29.06,-38.14,-58.02,-72.77,"Planum, plana",mc25,Approved,Classical albedo feature name.
Bosporos Rupes,531.42,-42.74,-57.55,-39.3,-46.35,-54.32,-60.83,"Rupes, rupēs",mc26,Approved,Classical albedo feature name.
Bouguer,107.78,-18.46,27.27,-17.55,-19.37,28.23,26.31,"Crater, craters",mc20,Approved,Pierre; French physicist-hydrographer (1698-1758).
Boulia,9.99,-22.89,111.32,-22.8,-22.97,111.41,111.23,"Crater, craters",mc22,Approved,"Town in Queensland, Australia."
Bozkir,79.89,-44.14,-32.18,-43.46,-44.81,-31.24,-33.12,"Crater, craters",mc26,Approved,Town in Turkey.
Bradbury,63.2,2.58,85.8,3.1,2.06,86.34,85.26,"Crater, craters",mc13,Approved,Raymond Douglas “Ray”; American author (1920-2012).
Brashear,77.45,-53.81,-119.03,-53.16,-54.47,-117.91,-120.13,"Crater, craters",mc25,Approved,John A.; American astronomer (1840-1920).
Brazos Valles,387.51,-6.08,18.7,-2.69,-7.4,21.49,15.36,"Vallis, valles",mc20,Approved,"River in Texas, USA."
Bree,28.79,37.64,149.63,37.87,37.41,149.94,149.32,"Crater, craters",mc07,Approved,Town in Belgium.
Bremerhaven,2.69,23.7,-48.64,23.72,23.68,-48.62,-48.67,"Crater, craters",mc10,Approved,German port.
Briault,93.06,-9.98,89.68,-9.19,-10.76,90.48,88.89,"Crater, craters",mc21,Approved,P.; French astronomer (d. 1922).
Bridgetown,1.57,21.9,-47.08,21.91,21.88,-47.06,-47.09,"Crater, craters",mc10,Approved,Port of Barbados.
Bristol,3,22.09,-46.93,22.12,22.07,-46.9,-46.96,"Crater, craters",mc10,Approved,English port.
Broach,11.31,23.51,-56.89,23.61,23.42,-56.79,-57,"Crater, craters",mc10,Approved,Town in India.
Bronkhorst,17.75,-10.7,-55.21,-10.55,-10.85,-55.05,-55.36,"Crater, craters",mc18,Approved,Town in The Netherlands.
Brush,6.49,21.7,111.34,21.75,21.65,111.4,111.28,"Crater, craters",mc14,Approved,"Town in Colorado, USA."
Bulhar,18.24,50.36,134.52,50.51,50.21,134.76,134.28,"Crater, craters",mc07,Approved,Town in Somalia.
Bunge,70.83,-33.82,-48.59,-33.22,-34.42,-47.87,-49.3,"Crater, craters",mc26,Approved,"Andrey Aleksandrovich; Russian zoologist, permafrost investigator (Late 19th century), and Nicolai A.; Russian chemist."
Bunnik,29,-38.07,-142.1,-37.83,-38.32,-141.77,-142.37,"Crater, craters",mc24,Approved,Village in the Netherlands.
Burroughs,112.69,-72.29,117.1,-71.33,-73.25,120.24,113.95,"Crater, craters",mc30,Approved,Edgar R.; American novelist (1875-1950).
Burton,119.26,-13.88,-156.33,-12.87,-14.89,-155.29,-157.36,"Crater, craters",mc16,Approved,Charles E.; British astronomer (1846-1882).
Buta,11.27,-23.25,-32.41,-23.15,-23.34,-32.31,-32.51,"Crater, craters",mc19,Approved,Town in Zaire.
Butte,12.55,-5.08,-38.91,-4.98,-5.19,-38.8,-39.02,"Crater, craters",mc19,Approved,"Town in Montana, USA."
Buvinda Vallis,134.17,33.17,151.96,33.84,32.19,152.23,151.07,"Vallis, valles",mc07,Approved,"Classical river in Hibernia; present Boyne River, Ireland."
Byala,26.23,-25.73,-66.47,-25.51,-25.96,-66.23,-66.71,"Crater, craters",mc18,Approved,Town in Bulgaria.
Byrd,123.27,-65.22,127.83,-64.18,-66.26,130.32,125.35,"Crater, craters",mc30,Approved,Richard Edwin; American aviator-explorer (1888-1975).
Byske,12.56,-4.97,-33.95,-4.87,-5.08,-33.85,-34.06,"Crater, craters",mc19,Approved,Town in Sweden.
Cádiz,1.38,23.15,-49.03,23.16,23.14,-49.02,-49.04,"Crater, craters",mc10,Approved,Spanish port.
Cagli,28.16,4.73,-3.55,4.96,4.5,-3.33,-3.78,"Crater, craters",mc11,Approved,Town in Italy.
Cairns,8.73,23.56,-47.46,23.64,23.49,-47.38,-47.54,"Crater, craters",mc10,Approved,Town in Australia.
Calahorra,34.22,26.46,-38.65,26.75,26.17,-38.33,-38.97,"Crater, craters",mc11,Approved,Town in Spain.
Calamar,7.21,18.27,-54.87,18.34,18.21,-54.8,-54.93,"Crater, craters",mc10,Approved,Town in Colombia.
Calbe,13.14,-25.14,-28.87,-25.03,-25.25,-28.75,-29,"Crater, craters",mc19,Approved,Town in Germany.
Calydon Fossa,351.25,-7.43,-87.98,-7.39,-7.5,-85.03,-90.95,"Fossa, fossae",mc18,Approved,The son of Ares and Astynome.
Camargo,4.77,17.7,109.64,17.74,17.66,109.68,109.6,"Crater, craters",mc14,Approved,Town in Bolivia.
Camichel,65.26,2.26,-51.61,2.82,1.71,-51.07,-52.15,"Crater, craters",mc10,Approved,Henri; French astronomer (1907-2003).
Camiling,21.91,-0.71,-38,-0.53,-0.9,-37.81,-38.18,"Crater, craters",mc19,Approved,Town in the Philippines.
Camiri,31.36,-44.65,-42.17,-44.39,-44.92,-41.79,-42.54,"Crater, craters",mc26,Approved,Town in Bolivia.
Campbell,125.26,-54.25,165.58,-53.2,-55.31,167.39,163.78,"Crater, craters",mc29,Approved,John W.; Canadian physicist (1889-1955). William W.; American astronomer (1862-1938).
Campos,8.25,-21.8,-27.81,-21.73,-21.87,-27.74,-27.89,"Crater, craters",mc19,Approved,Town in Brazil.
Can,8.62,48.21,-14.59,48.28,48.14,-14.48,-14.7,"Crater, craters",mc04,Approved,Town in Turkey.
Canala,12,24.35,-80.08,24.45,24.26,-79.98,-80.18,"Crater, craters",mc10,Approved,Town in New Caledonia.
Cañas,41.52,-31.19,89.86,-30.84,-31.54,90.27,89.45,"Crater, craters",mc28,Approved,Town in Puerto Rico.
Canaveral,3.18,46.83,135.83,46.86,46.8,135.87,135.79,"Crater, craters",mc07,Approved,American launch site.
Canberra,3.1,47.2,132.66,47.23,47.18,132.7,132.62,"Crater, craters",mc07,Approved,Australian tracking site.
Candor,0,2.96,-75,2.96,2.96,-75,-75,Albedo Feature,mc10,Approved,"Means ""Blaze"" or ""White"" in Latin."
Candor Chaos,0,-6.94,-72.58,-6.35,-7.6,-71.7,-73.29,"Chaos, chaoses",mc18,Approved,"From albedo feature at 5N, 75W."
Candor Chasma,810.61,-6.53,-70.78,-4.28,-9.13,-64.03,-77.49,"Chasma, chasmata",mc18,Approved,Classical albedo feature name.
Candor Colles,37.38,-6.63,-75.57,-6.57,-6.67,-75.3,-75.94,"Collis, colles",mc18,Approved,Classical albedo feature name.
Candor Labes,134.94,-4.79,-75.99,-4.44,-5.43,-74.91,-77.15,"Labes, labēs",mc18,Approved,"From classical albedo feature at 5N, 75W."
Candor Mensa,116.56,-6.26,-73.52,-5.33,-7.27,-73.08,-74.37,"Mensa, mensae",mc18,Approved,Classical albedo feature.
Candor Sulci,73.36,-4.92,-76.85,-4.6,-5.43,-76.11,-77.36,"Sulcus, sulci",mc18,Approved,Classical albedo feature name.
Cangwu,13.64,41.85,-89.59,41.96,41.73,-89.43,-89.74,"Crater, craters",mc03,Approved,Town in China.
Canillo,33.93,10.23,116.48,10.51,9.94,116.77,116.19,"Crater, craters",mc14,Approved,Town in Andorra. 
Cankuzo,48.45,-19.42,52.03,-19.01,-19.83,52.47,51.6,"Crater, craters",mc21,Approved,Town in Burundi.
Canso,26.42,21.36,-60.62,21.59,21.14,-60.39,-60.87,"Crater, craters",mc10,Approved,"Town in Nova Scotia, Canada."
Cantoura,51.59,14.84,-51.72,15.17,14.51,-51.27,-52.17,"Crater, craters",mc10,Approved,Town in Venezuela.
Capen,68.99,6.58,14.31,7.16,6,14.9,13.73,"Crater, craters",mc12,Approved,"Charles F., Jr; American astronomer (1926-1986)."
Capri Chasma,1471.56,-8.27,-42.07,-1.87,-15,-34.5,-52.69,"Chasma, chasmata",mc19,Approved,Classical albedo feature name.
Capri Mensa,282.35,-13.73,-47.19,-12.16,-15.14,-44.79,-49.77,"Mensa, mensae",mc18,Approved,Classical albedo feature name.
Capri Montes,265,-19.2,-59.72,-17.09,-21.34,-58.01,-61.35,"Mons, montes",mc18,Approved,"Classical albedo feature, Capri Cornu."
Caralis Chaos,103.35,-37.2,178.6,-36.54,-38.12,179.83,177.64,"Chaos, chaoses",mc29,Approved,"After Caralis Fons, classical albedo feature named after Caralis Lacus, now Beysehir Gölü, in Isauria (Asia Minor)."
Cardona,13.7,-19.65,-31.98,-19.53,-19.76,-31.86,-32.11,"Crater, craters",mc19,Approved,Town in Uruguay.
Cartago,36.57,-23.25,-17.97,-22.94,-23.56,-17.63,-18.3,"Crater, craters",mc19,Approved,Town in Costa Rica.
Casius,0,39.67,100,39.67,39.67,100,100,Albedo Feature,mc06,Approved,Epithet of Zeus; for his two sanctuaries in Egypt/Arabia and Syria.
Cassini,408.23,23.35,32.11,26.8,19.91,35.86,28.36,"Crater, craters",mc12,Approved,Giovanni; Italian astronomer (1625-1712).
Castril,2.19,-14.7,175.3,-14.68,-14.72,175.32,175.28,"Crater, craters",mc23,Approved,Town in Spain.
Catota,1.3,51.67,-26.98,51.68,51.66,-26.96,-26.99,"Crater, craters",mc04,Approved,Village in Angola.
Cave,8.2,21.61,-35.64,21.68,21.55,-35.56,-35.71,"Crater, craters",mc11,Approved,Town in New Zealand.
Cavi Angusti,640.04,-78.16,-74.75,-72.59,-83.17,-50.04,-108.13,"Cavus, cavi",mc30,Approved,Classical albedo feature name.
Caxias,25.88,-28.95,-100.68,-28.74,-29.17,-100.43,-100.93,"Crater, craters",mc17,Approved,Town in Brazil.
Cayon,27.31,-35.93,113.62,-35.72,-36.13,113.9,113.33,"Crater, craters",mc28,Approved,Town in Saint Kitts and Nevis.
Cebrenia,0,49.67,150,49.67,49.67,150,150,Albedo Feature,mc07,Approved,Main country of the Trojan Plain.
Cecropia,0,59.71,40,59.71,59.71,40,40,Albedo Feature,mc05,Approved,Old name for Acropolis; used to mean Athens.
Cefalù,5.53,23.64,-38.89,23.68,23.59,-38.84,-38.94,"Crater, craters",mc11,Approved,Town in Sicily.
Centauri Montes,271,-38.67,95.52,-36.12,-40.49,97.8,94.48,"Mons, montes",mc28,Approved,Albedo feature Centauri Lacus.
Ceraunius,0,19.78,-93,19.78,19.78,-93,-93,Albedo Feature,mc09,Approved,"""Thunderclap""; named for Ceraunii Mountains on coast of Epirus, Greece."
Ceraunius Catena,50.49,37.1,-108.09,37.5,36.7,-107.91,-108.27,"Catena, catenae",mc03,Approved,Named for classical albedo feature at 35N 96W.
Ceraunius Fossae,1166.63,27,-110.15,38.12,18.52,-104.26,-113.05,"Fossa, fossae",mc09,Approved,Classical albedo feature name
Ceraunius Tholus,128.58,24,-97.25,24.83,23.19,-96.07,-98.44,"Tholus, tholi",mc09,Approved,Classical albedo feature name.
Cerberus,0,14.83,155,14.83,14.83,155,155,Albedo Feature,mc15,Approved,Hound who had 3 heads; guarded gates of hell.
Cerberus Dorsa,623.05,-13.74,105.29,-9.18,-18.28,108.78,101.51,"Dorsum, dorsa",mc22,Approved,Classical albedo feature name.
Cerberus Fossae,1235,11.28,166.37,16.16,6.23,174.72,154.43,"Fossa, fossae",mc15,Approved,"From albedo feature at 10n, 212W. Changed from Cerberus Rupes."
Cerberus Palus,466.68,5.78,148.15,8.98,1.03,152.47,144.58,"Palus, paludes",mc15,Approved,Classical albedo feature name.
Cerberus Tholi,698,4.48,164.41,7.94,-0.64,169.63,158.46,"Tholus, tholi",mc15,Approved,Classical albedo feature name.
Cerulli,114.28,32.2,22.12,33.17,31.24,23.26,20.98,"Crater, craters",mc05,Approved,Vicenzo; Italian astronomer (1859-1927).
Ceti Chasma,49.77,-5.03,-68.37,-4.88,-5.22,-67.97,-68.77,"Chasma, chasmata",mc18,Approved,"From albedo feature at 10S, 74W."
Ceti Labes,11.05,-6.78,-75.73,-6.7,-6.86,-75.66,-75.85,"Labes, labēs",mc18,Approved,Classical albedo feature name.
Ceti Mensa,133.95,-5.89,-76.02,-4.96,-6.72,-74.91,-77.19,"Mensa, mensae",mc18,Approved,Albedo feature Ceti Lacus.
Chafe,4.67,15.1,102.41,15.14,15.06,102.45,102.37,"Crater, craters",mc14,Approved,Town in Nigeria.
Chalce,0,-49.67,0,-49.67,-49.67,0,0,Albedo Feature,mc26,Approved,"Old name of island of Khalki, west of Rhodes."
Chalce Fossa,33.97,-51.67,-39.59,-51.57,-51.68,-39.18,-40.04,"Fossa, fossae",mc26,Approved,Albedo name.
Chalce Montes,100,-53.72,-37.65,-53,-54.12,-36.49,-38.58,"Mons, montes",mc26,Approved,Albedo name.
Chalcoporos Rupēs,404.98,-55.64,20.57,-52.21,-59.05,24.51,16.56,"Rupes, rupēs",mc27,Approved,"From albedo feature at 50S, 6W."
Chaman,47.92,-60.86,50.96,-60.46,-61.27,51.79,50.13,"Crater, craters",mc27,Approved,Town in Pakistan.
Chamba,37,14.29,-24.38,14.57,14,-24.06,-24.7,"Crater, craters",mc11,Approved,Town in India.
Chamberlin,120.25,-65.84,-124.29,-64.83,-66.86,-121.8,-126.76,"Crater, craters",mc30,Approved,Thomas C.; American geologist (1843-1928).
Changsŏng,33.54,23.47,-57.34,23.76,23.19,-57.03,-57.65,"Crater, craters",mc10,Approved,Town in the Democratic People's Republic of Korea.
Chapais,36.67,-22.35,-20.55,-22.04,-22.66,-20.21,-20.88,"Crater, craters",mc19,Approved,"Town in Quebec, Canada."
Charis Dorsum,251,-55.86,-41.47,-54.5,-56.26,-38.75,-44.97,"Dorsum, dorsa",mc26,Approved,One of the Graces.
Charitum Montes,933.54,-58.1,-40.29,-52.9,-60.55,-27.37,-54.06,"Mons, montes",mc26,Approved,Classical albedo feature name.
Charleston,1.96,22.63,-47.8,22.64,22.61,-47.78,-47.81,"Crater, craters",mc10,Approved,American colonial town (South Carolina).
Charlier,106.28,-68.56,-168.47,-67.67,-69.46,-166.01,-170.91,"Crater, craters",mc30,Approved,Carl V.; Swedish astronomer (1862-1934).
Charlieu,18.63,38.15,-83.99,38.31,38,-83.79,-84.19,"Crater, craters",mc03,Approved,Town in France.
Charybdis Scopulus,551.26,-24.14,20.08,-19.91,-28.33,21.55,18.53,"Scopulus, scopuli",mc20,Approved,"From albedo feature at 19S, 320W."
Chasma Australe,352.61,-82.35,95.03,-80.04,-85.86,102.53,79.04,"Chasma, chasmata",mc30,Approved,Classical albedo feature name.
Chasma Boreale,459.88,82.54,-47.64,85.07,79.3,-16.2,-59.38,"Chasma, chasmata",mc01,Approved,Classical albedo feature name.
Chatturat,7.84,35.38,-94.94,35.44,35.32,-94.88,-95.01,"Crater, craters",mc03,Approved,Town in Thailand.
Chauk,9.97,23.35,-55.91,23.44,23.27,-55.82,-56,"Crater, craters",mc10,Approved,Town in Burma.
Cheb,8.28,-24.2,-19.44,-24.13,-24.27,-19.37,-19.52,"Crater, craters",mc19,Approved,Town in Czechoslovakia.
Chefu,11.27,-22.91,112.24,-22.82,-23.01,112.35,112.14,"Crater, craters",mc22,Approved,Town in Mozambique.
Chekalin,87.78,-24.28,-26.81,-23.53,-25.02,-26,-27.62,"Crater, craters",mc19,Approved,Town in Russia.
Chersonesus,0,-49.67,100,-49.67,-49.67,100,100,Albedo Feature,mc28,Approved,Gallipoli Peninsula.
Chia,91.91,1.57,-59.65,2.35,0.8,-58.87,-60.42,"Crater, craters",mc10,Approved,Town in Spain.
Chico Valles,446.35,-66.77,-152.23,-65.02,-70.45,-141.99,-158.69,"Vallis, valles",mc30,Approved,River in Argentina.
Chimbote,62.86,-1.42,-39.68,-0.89,-1.95,-39.15,-40.21,"Crater, craters",mc19,Approved,Town in Peru.
Chincoteague,34.03,41.2,124.12,41.49,40.92,124.5,123.74,"Crater, craters",mc07,Approved,"Town in Virginia, USA."
Chinju,65.71,-4.52,-42.14,-3.96,-5.07,-41.59,-42.7,"Crater, craters",mc19,Approved,Town in the Republic of Korea.
Chinook,18.1,22.5,-55.46,22.66,22.35,-55.3,-55.63,"Crater, craters",mc10,Approved,"Town in Alberta, Canada."
Chive,9.1,21.68,-56.01,21.76,21.61,-55.93,-56.09,"Crater, craters",mc10,Approved,Town in Bolivia.
Choctaw,23.96,-41.19,-37.24,-40.98,-41.39,-36.97,-37.5,"Crater, craters",mc26,Approved,"Town in Ohio, USA."
Chom,5.58,38.57,-2.52,38.62,38.53,-2.45,-2.58,"Crater, craters",mc04,Approved,Town in China (Tibet).
Choyr,36.42,-32.43,18.72,-32.12,-32.74,19.06,18.38,"Crater, craters",mc27,Approved,Town in Mongolia.
Chronius Mons,56.14,-61.49,178.01,-61.02,-61.96,178.74,177.21,"Mons, montes",mc29,Approved,Classical albedo feature name.
Chrysas Mensa,167,-6.77,-70.1,-6.32,-7.27,-68.88,-71.67,"Mensa, mensae",mc18,Approved,"Classical albedo feature name, Chrysas."
Chryse,0,9.88,-30,9.88,9.88,-30,-30,Albedo Feature,mc11,Approved,Island rich in gold; region of Thailand/Malacca.
Chryse Chaos,658.89,9.86,-37.19,15.74,4.82,-31.75,-41.7,"Chaos, chaoses",mc11,Approved,Classical albedo feature name. 
Chryse Colles,48.66,8.15,-41.86,8.28,7.57,-41.45,-42.27,"Collis, colles",mc11,Approved,Classical albedo feature name.
Chryse Planitia,1542.44,28.43,-40.31,39.61,14.85,-26.07,-54.77,"Planitia, planitiae",mc11,Approved,Classical albedo feature name.
Chrysokeras,0,-49.67,-110,-49.67,-49.67,-110,-110,Albedo Feature,mc25,Approved,"""Golden Horn""; Byzantine Peninsula (now Turkey), or its inlet."
Chukhung,45,38.47,-72.42,38.85,38.07,-71.91,-72.91,"Crater, craters",mc03,Approved,Village in Nepal.
Chupadero,8.04,6.13,83.43,6.2,6.07,83.5,83.37,"Crater, craters",mc13,Approved,"Village in New Mexico, USA."
Chur,4.39,16.93,-29.31,16.97,16.9,-29.27,-29.34,"Crater, craters",mc11,Approved,Town in Russia.
Cilaos,21.4,-35.71,129.48,-35.52,-35.88,129.67,129.23,"Crater, craters",mc29,Approved,Town on Réunion Island.
Circle,11.8,-22.17,-25.53,-22.07,-22.27,-25.42,-25.63,"Crater, craters",mc19,Approved,"Town in Montana, USA."
Clanis Valles,58,33.24,58.47,33.44,33.03,58.93,57.78,"Vallis, valles",mc05,Approved,"Classical river in Etruria; present Chiana River, Italy."
Claritas,0,-34.68,-110,-34.68,-34.68,-110,-110,Albedo Feature,mc25,Approved,"Latin, meaning ""bright."""
Claritas Fossae,2030.64,-27.89,-104.24,-12,-43.48,-86.69,-111.9,"Fossa, fossae",mc17,Approved,Classical albedo feature name.
Claritas Rupes,952.87,-25.04,-105.26,-17.5,-32.62,-103.8,-107.3,"Rupes, rupēs",mc17,Approved,"From albedo feature at 25S, 110W."
Clark,97.5,-55.14,-133.2,-54.32,-55.97,-131.76,-134.64,"Crater, craters",mc24,Approved,Alvan; American optician-astronomer (1804-1887).
Clasia Vallis,147,33.77,57.04,34.14,32.75,58.09,56.57,"Vallis, valles",mc05,Approved,"Classical river in Umbria, Italy."
Cleia Dorsum,131.69,-54.86,-45.99,-53.9,-55.9,-45.54,-46.9,"Dorsum, dorsa",mc26,Approved,One of the Graces.
Clogh,11.2,20.56,-47.67,20.66,20.47,-47.57,-47.77,"Crater, craters",mc10,Approved,Town in Ireland.
Clota Vallis,114.36,-25.59,-20.5,-24.72,-26.3,-20.5,-21.08,"Vallis, valles",mc19,Approved,"Ancient name for present River Clyde, Scotland."
Clova,7.75,21.47,-52.05,21.53,21.4,-51.97,-52.12,"Crater, craters",mc10,Approved,"Town in Quebec, Canada."
Cluny,14.84,-23.86,-27.3,-23.74,-23.99,-27.16,-27.44,"Crater, craters",mc19,Approved,Town in France.
Cobalt,10.53,-25.79,-27.03,-25.7,-25.88,-26.93,-27.13,"Crater, craters",mc19,Approved,"Town in Connecticut, USA."
Coblentz,101.75,-54.9,-90.31,-54.13,-55.69,-88.82,-91.78,"Crater, craters",mc25,Approved,William W.; American physicist (1873-1962).
Cobres,93.76,-11.7,-153.6,-10.91,-12.49,-152.79,-154.4,"Crater, craters",mc16,Approved,Village in Argentina.
Coimbra,34.53,4.18,-5.31,4.47,3.89,-5.02,-5.6,"Crater, craters",mc11,Approved,Town in Portugal.
Colles Nili,653.67,38.72,62.88,40.6,36.65,69.7,55.78,"Collis, colles",mc06,Approved,"From classical albedo feature Portus Nili, at 38N, 295W."
Coloe Fossae,575.89,36.65,56.78,40.72,32.49,60.58,53.4,"Fossa, fossae",mc05,Approved,Classical albedo feature name.
Colón,1.36,22.75,-47.07,22.76,22.74,-47.05,-47.08,"Crater, craters",mc10,Approved,Port of Panama.
Columbia Valles,84.82,-9.44,-42.9,-8.81,-9.98,-42.29,-43.6,"Vallis, valles",mc19,Approved,"River in Washington, USA."
Columbus,112.6,-29.29,-165.98,-28.34,-30.24,-164.89,-167.07,"Crater, craters",mc16,Approved,Christopher; Italian explorer (1451-1506).
Comas Sola,120.24,-19.59,-158.51,-18.58,-20.6,-157.43,-159.58,"Crater, craters",mc16,Approved,Jose; Spanish astronomer (1868-1937).
Conches,20.89,-4.22,-34.2,-4.05,-4.4,-34.03,-34.38,"Crater, craters",mc19,Approved,Town in France.
Concord,20.46,16.53,-34.02,16.7,16.35,-33.84,-34.2,"Crater, craters",mc11,Approved,"Town in Massachusetts, USA."
Coogoon Valles,300,17.19,-21.74,19.07,15.96,-19.25,-23.93,"Vallis, valles",mc11,Approved,River in Australia.
Cooma,17.85,-23.69,-108.35,-23.54,-23.84,-108.19,-108.51,"Crater, craters",mc17,Approved,"Town in New South Wales, Australia."
Copais Palus,0,54.68,80,54.68,54.68,80,80,Albedo Feature,mc06,Approved,"Named for marsh north of Mt. Helicon in Boeotia, Greece."
Copernicus,301.83,-48.84,-168.83,-46.3,-51.39,-164.95,-172.69,"Crater, craters",mc24,Approved,Nicolaus; Polish astronomer (1473-1543).
Coprates,0,-14.83,-65,-14.83,-14.83,-65,-65,Albedo Feature,mc18,Approved,Old name for Persian River Ab-I-Diz.
Coprates Catena,302.06,-15,-62.09,-14.37,-15.95,-57.87,-66.59,"Catena, catenae",mc18,Approved,Classical albedo feature name.
Coprates Chasma,958.31,-13.37,-60.74,-10.32,-16.26,-52.56,-68.96,"Chasma, chasmata",mc18,Approved,Classical albedo feature name.
Coprates Labes,61.97,-11.82,-67.79,-11.34,-12.34,-67.25,-68.32,"Labes, labēs",mc18,Approved,"From albedo feature at 14S, 65W."
Coprates Mensa,240,-12.2,-71.16,-10.9,-13.25,-68.67,-72.8,"Mensa, mensae",mc18,Approved,"Classical martian albedo feature, Coprates."
Coprates Montes,350,-13,-65.39,-11.94,-13.94,-62.92,-68.88,"Mons, montes",mc18,Approved,"Classical martian albedo feature, Coprates"
Coracis Fossae,748.96,-35.82,-80.86,-30.01,-41.56,-74.66,-87.18,"Fossa, fossae",mc25,Approved,"From albedo feature at 46S, 87W."
Corby,6.62,42.88,137.56,42.93,42.82,137.64,137.49,"Crater, craters",mc07,Approved,Town in England.
Corinto,13.69,16.95,141.71,17.06,16.83,141.83,141.59,"Crater, craters",mc15,Approved,Town in El Salvador.
Coronae Montes,247.4,-34.31,86.11,-32.88,-36.63,88.69,84.3,"Mons, montes",mc28,Approved,Albedo feature name.
Coronae Planum,265,-32.68,65.41,-30.74,-34.62,66.85,63.66,"Planum, plana",mc28,Approved,Albedo feature name.
Coronae Scopulus,245.24,-33.26,64.94,-30.88,-34.68,67.16,63.61,"Scopulus, scopuli",mc28,Approved,"From albedo feature at 26S, 276W."
Corozal,8.33,-38.79,159.42,-38.72,-38.86,159.51,159.33,"Crater, craters",mc29,Approved,Town in Belize.
Cost,11.07,14.98,104.02,15.07,14.89,104.12,103.92,"Crater, craters",mc14,Approved,"Town in Texas, USA."
Cray,6.98,44.1,-16.12,44.16,44.04,-16.03,-16.2,"Crater, craters",mc04,Approved,Town in England.
Creel,9.19,-6.05,-38.85,-5.97,-6.12,-38.77,-38.93,"Crater, craters",mc19,Approved,Town in Mexico.
Crewe,3.68,-24.84,-19.53,-24.81,-24.87,-19.49,-19.56,"Crater, craters",mc19,Approved,Town in England.
Crivitz,6.19,-14.55,174.79,-14.5,-14.6,174.85,174.74,"Crater, craters",mc23,Approved,Town in Germany.
Crommelin,110.08,5.08,-10.14,6.01,4.15,-9.2,-11.06,"Crater, craters",mc11,Approved,Andrew C.; British astronomer (1865-1939).
Cross,66.57,-30.2,-157.69,-29.64,-30.76,-157.04,-158.34,"Crater, craters",mc24,Approved,Charles Arthur; British astronomer and cartographer (1920-1980).
Crotone,6.28,82.21,-69.31,82.27,82.16,-68.92,-69.7,"Crater, craters",mc01,Approved,Town in Italy.
Cruls,87.89,-42.91,163.03,-42.17,-43.65,164.04,162.02,"Crater, craters",mc29,Approved,Luiz; Brazilian astronomer (1848-1908).
Cruz,5.33,38.46,-1.97,38.51,38.42,-1.91,-2.02,"Crater, craters",mc04,Approved,Town in Venezuela.
Cue,10.54,-35.84,93.23,-35.75,-35.92,93.34,93.12,"Crater, craters",mc28,Approved,Town in Western Australia.
Culter,4.87,-8.84,-53.93,-8.8,-8.88,-53.89,-53.98,"Crater, craters",mc18,Approved,"Village near Aberdeen, Scotland, also called Peterculter."
Curie,111.11,28.78,-4.75,29.72,27.85,-3.67,-5.81,"Crater, craters",mc11,Approved,Pierre; French physicist-chemist (1859-1906).
Cusus Valles,250.24,14.05,50.37,16.15,11.93,52.69,48.37,"Vallis, valles",mc13,Approved,Classical name for modern Hron River in Czechoslovakia.
Cyane Catena,204.06,36.25,-118.3,37.91,34.61,-117.73,-118.87,"Catena, catenae",mc03,Approved,Classical albedo feature Cyane Fons.
Cyane Fossae,913.17,31.25,-121.17,38.96,23.52,-114.81,-126.03,"Fossa, fossae",mc02,Approved,Classical albedo feature name.
Cyane Sulci,335.94,25.4,-128.66,27.91,22.76,-126.59,-130.71,"Sulcus, sulci",mc09,Approved,Classical albedo feature name.
Cyclopia,0,-4.94,130,-4.94,-4.94,130,130,Albedo Feature,mc22,Approved,Land where Cyclops dwelt.
Cydnus Rupēs,1550.81,52.53,112.21,67.34,45.86,136.85,94.98,"Rupes, rupēs",mc06,Approved,"From albedo feature at 70N, 248W."
Cydonia,0,39.67,0,39.67,39.67,0,0,Albedo Feature,mc04,Approved,Poetic term for Crete.
Cydonia Colles,362.78,39.07,-12.22,41.67,37.12,-8.76,-16.47,"Collis, colles",mc04,Approved,"Named for classical albedo feature at 50N, 355W."
Cydonia Labyrinthus,344.05,41.29,-12.06,43.05,39.78,-8.71,-15.69,"Labyrinthus, labyrinthi",mc04,Approved,"Named for classical albedo feature at 50N, 355W."
Cydonia Mensae,764.96,34.56,-12.33,40.65,29.75,-8.98,-19.84,"Mensa, mensae",mc04,Approved,"From albedo feature at 50N, 355W."
Cypress,14.67,-47.28,-47.35,-47.17,-47.39,-47.2,-47.51,"Crater, craters",mc26,Approved,"Town in Illinois, USA."
Daan,12.22,-40.48,91.58,-40.37,-40.58,91.72,91.44,"Crater, craters",mc28,Approved,Town in China.
Dacono,2.2,18.34,77.95,18.36,18.32,77.97,77.93,"Crater, craters",mc13,Approved,"Town in Colorado, USA."
Daedalia Planum,1922.02,-18.35,-125.95,-2.13,-34.56,-109.36,-142.91,"Planum, plana",mc17,Approved,Classical albedo feature name.
Daet,10.58,-7.29,-41.8,-7.19,-7.37,-41.71,-41.89,"Crater, craters",mc19,Approved,Town in the Philippines.
Daga Vallis,49.86,-12.07,-42.42,-11.8,-12.47,-41.93,-42.91,"Vallis, valles",mc19,Approved,River in Burma.
Dalu Cavus,65,-6.9,-99,-6.4,-7.5,-98.5,-99.5,"Cavus, cavi",mc17,Approved,Javanese word for night.
Daly,79.72,-66.29,-23.12,-65.62,-66.97,-21.43,-24.8,"Crater, craters",mc30,Approved,Reginald A.; Canadian-born American geologist (1871-1957).
Dana,88.49,-72.49,-32.79,-71.75,-73.24,-30.29,-35.26,"Crater, craters",mc30,Approved,James D.; American geologist (1813-1895).
Danielson,64.3,7.97,-7.05,8.52,7.43,-6.5,-7.59,"Crater, craters",mc11,Approved,"G. Edward Danielson, Jr.; American Engineer (1939-2005)."
Dank,8.29,21.96,107,22.03,21.89,107.07,106.92,"Crater, craters",mc14,Approved,Town in Oman.
Dao Vallis,794,-37.61,88.89,-32.67,-39.76,93.88,82.04,"Vallis, valles",mc28,Approved,"Word for ""star"" in Thai."
Darvel,22.36,17.78,-51.01,17.97,17.59,-50.81,-51.21,"Crater, craters",mc10,Approved,Town in Scotland.
Darwin,176.38,-56.97,-19.15,-55.48,-58.46,-16.41,-21.87,"Crater, craters",mc26,Approved,Charles R.; British naturalist (1809-1882) and George H.; British astronomer (1845-1912).
Davies,48.06,45.96,0.09,46.37,45.56,0.68,-0.49,"Crater, craters",mc05,Approved,"Merton Edward; American engineer, planetary geodesist (1917-2001)."
Da Vinci,96.3,1.47,-39.26,2.28,0.65,-38.45,-40.08,"Crater, craters",mc11,Approved,Leonardo; Italian artist-scientist (1452-1519).
Dawes,185.32,-9.11,38.06,-7.54,-10.67,39.64,36.48,"Crater, craters",mc20,Approved,William R.; British astronomer (1799-1868).
Deba,8.8,-23.95,-17.3,-23.88,-24.03,-17.22,-17.38,"Crater, craters",mc19,Approved,Town in Nigeria.
Dechu,22,-42.25,-157.99,-42.06,-42.43,-157.75,-158.24,"Crater, craters",mc24,Approved,Village in India.
Degana,57,-23.72,-45.5,-23.25,-24.2,-44.99,-46,"Crater, craters",mc18,Approved,Town in India.
Dein,25.52,38.21,-2.51,38.42,37.99,-2.25,-2.79,"Crater, craters",mc04,Approved,Town in New Guinea.
Dejnev,152.09,-25.14,-164.64,-23.85,-26.42,-163.22,-166.05,"Crater, craters",mc16,Approved,"Semen Ivanovich; Russian geographer, explorer, and navigator (1605-1673)."
Delta,7.89,-45.96,-39.17,-45.89,-46.03,-39.08,-39.27,"Crater, craters",mc26,Approved,"Town in Louisiana, USA."
Deltoton Sinus,0,-3.95,55,-3.95,-3.95,55,55,Albedo Feature,mc21,Approved,"""Bay of the triangle""; makes triangle with Iapygia and Oenotria."
Denning,159.71,-17.43,33.52,-16.08,-18.78,34.94,32.11,"Crater, craters",mc20,Approved,William F.; British astronomer (1848-1931).
Depressio Hellespontica,0,-59.71,20,-59.71,-59.71,20,20,Albedo Feature,mc27,Approved,Depression southwest of Hellespontus.
Dersu,5.88,22.64,-51.89,22.69,22.59,-51.84,-51.94,"Crater, craters",mc10,Approved,Town in Russia.
Dese,13.14,-45.41,-30.61,-45.3,-45.52,-30.46,-30.77,"Crater, craters",mc26,Approved,Town in Ethiopa.
Deseado,27,-80.62,70.29,-80.39,-80.85,71.69,68.88,"Crater, craters",mc30,Approved,Town in Argentina.
Dessau,9.95,-42.76,-53.13,-42.68,-42.84,-53.01,-53.24,"Crater, craters",mc26,Approved,Town in Germany.
Deucalionis Regio,0,-14.83,20,-14.83,-14.83,20,20,Albedo Feature,mc20,Approved,"""Deucalion's region;"" Deucalion was King of Thessaly who saved himself from flood."
Deuteronilus,0,34.68,0,34.68,34.68,0,0,Albedo Feature,mc04,Approved,"Designation of 2nd part of old feature ""Nilus."""
Deuteronilus Colles,59.01,41.95,21.7,42.38,41.48,22.31,20.97,"Collis, colles",mc05,Approved,Classical albedo feature name.
Deuteronilus Mensae,919.17,45.11,23.92,49.86,39.57,35.37,13.68,"Mensa, mensae",mc05,Approved,"From albedo feature at 35N, 355W."
de Vaucouleurs,302.27,-13.31,171,-10.78,-15.88,173.62,168.38,"Crater, craters",mc23,Approved,Gerard Henri; American astronomer (1918-1995).
Deva Vallis,53.65,-7.67,-156.87,-7.3,-8.17,-156.41,-157.32,"Vallis, valles",mc16,Approved,Classical name for Dee River in Scotland; new position and coordinates.
Dia-Cau,29.47,-0.36,-42.66,-0.11,-0.61,-42.42,-42.91,"Crater, craters",mc19,Approved,Town in the Socialist Republic of Vietnam.
Diacria,0,49.67,180,49.67,49.67,180,180,Albedo Feature,mc07,Approved,"Highland area in northern Attica, Greece."
Dilly,2.13,13.27,157.22,13.28,13.25,157.24,157.2,"Crater, craters",mc15,Approved,Town in Mali.
Dingo,15.56,-23.71,-17.49,-23.57,-23.83,-17.35,-17.63,"Crater, craters",mc19,Approved,Town in Australia.
Dinorwic,51.33,-30.03,-101.46,-29.6,-30.47,-100.96,-101.96,"Crater, craters",mc25,Approved,"Town in Ontario, Canada."
Dionysus Patera,23,17.96,-133.23,18.13,17.78,-133.11,-133.46,"Patera, paterae",mc09,Approved,"Greek god of wine, celebration and ecstasy, patron god of the art and theatre, one of the Olympian gods, son of Zeus."
Dioscuria,0,49.67,40,49.67,49.67,40,40,Albedo Feature,mc05,Approved,"""Home of Dioscuri,"" Polydeuces and Pollux; symbolic name for Sparta."
Dison,20.67,-25.03,-16.5,-24.86,-25.21,-16.31,-16.69,"Crater, craters",mc19,Approved,Town in Belgium.
Dittaino Valles,157.42,-1.43,-66.86,-0.4,-2.48,-66.16,-67.35,"Vallis, valles",mc18,Approved,Modern river in Italy.
Dixie,28.44,17.78,-55.91,18.02,17.54,-55.66,-56.16,"Crater, craters",mc10,Approved,"Town in Georgia, USA."
Doanus Vallis,139.91,-63.02,-25.59,-62.65,-63.2,-23.4,-27.67,"Vallis, valles",mc26,Approved,Classical river shown in Ptolemy's map; may be modern Mekong River of Burma.
Doba,25.89,10.92,119.62,11.14,10.7,119.85,119.4,"Crater, craters",mc14,Approved,Town in the Republic of Chad.
Dogana,41.2,-10.01,-53.67,-9.67,-10.35,-53.32,-54.01,"Crater, craters",mc18,Approved,Town in the Republic of San Marino.
Dokka,51.1,77.17,-145.76,77.6,76.74,-143.8,-147.68,"Crater, craters",mc01,Approved,Town in Norway.
Dokuchaev,74.74,-60.62,-127.08,-59.99,-61.26,-125.79,-128.36,"Crater, craters",mc24,Approved,Vasily Vasil'evich; Russian soil scientist; founded modern genetical soil science (1840-1903).
Dollfus,363.08,-21.59,-4.26,-18.5,-24.68,-0.97,-7.76,"Crater, craters",mc19,Approved,Audouin Charles; French astronomer (1924-2010).
Domoni,13.82,51.38,-125.61,51.5,51.27,-125.43,-125.79,"Crater, craters",mc02,Approved,Town in the Union of the Comoros.
Doon,3.79,23.53,109.51,23.56,23.5,109.54,109.47,"Crater, craters",mc14,Approved,"Town in Ontario, Canada."
Dorsa Argentea,339.26,-77.63,-33.39,-75.33,-79.18,-21.52,-44.04,"Dorsum, dorsa",mc30,Approved,Classical albedo feature name.
Dorsa Brevia,650.99,-71.05,63.18,-68.1,-73.25,80.79,49.16,"Dorsum, dorsa",mc30,Approved,Classical albedo feature name.
Douglass,92.95,-51.34,-70.54,-50.56,-52.13,-69.27,-71.78,"Crater, craters",mc25,Approved,Andrew E.; American astronomer (1867-1962).
Dowa,40.84,-31.66,110.24,-31.31,-32,110.65,109.84,"Crater, craters",mc28,Approved,Town in Malawi.
Downe,28.13,-15.98,175.78,-15.74,-16.22,176.03,175.54,"Crater, craters",mc23,Approved,Town in England.
Drava Valles,159.03,-48.86,165.99,-47.53,-50.4,168.15,164.42,"Vallis, valles",mc29,Approved,Modern river in Yugoslavia.
Drilon Vallis,118.53,7.17,-52.34,7.81,6.47,-51.9,-52.79,"Vallis, valles",mc10,Approved,"Classical name for present Drin River, Albania."
Dromore,14.75,19.88,-49.58,20.01,19.76,-49.45,-49.72,"Crater, craters",mc10,Approved,Town in Northern Ireland.
Dubis Vallis,45.42,-5.16,-148.13,-4.86,-5.5,-148,-148.15,"Vallis, valles",mc16,Approved,"Classical name for modern Doubs River, France."
Dubki,9.19,-34.97,-55.2,-34.89,-35.05,-55.11,-55.3,"Crater, craters",mc26,Approved,Town in Russia.
Dukhan,34.04,7.76,-39.14,8.04,7.47,-38.85,-39.43,"Crater, craters",mc11,Approved,Town in Qatar.
Dulce Vallis,32.46,-4.82,136.54,-4.59,-4.96,136.74,136.47,"Vallis, valles",mc23,Approved,River in Argentina.
Dulovo,17.38,3.62,84.56,3.77,3.48,84.71,84.41,"Crater, craters",mc13,Approved,Town in Bulgaria.
Du Martheray,96.12,5.45,93.58,6.27,4.64,94.4,92.77,"Crater, craters",mc14,Approved,Maurice; Swiss astronomer (1892-1955).
Dunhuang,11.73,-80.84,-48.53,-80.74,-80.94,-47.91,-49.15,"Crater, craters",mc30,Approved,Town in China.
Dunkassa,8,-37.49,-137.06,-37.42,-37.56,-136.98,-137.15,"Crater, craters",mc24,Approved,Town in Benin.
Durius Valles,240,-17.3,171.98,-15.62,-19.16,173.23,171.11,"Vallis, valles",mc23,Approved,"Classical name for modern Douro River, Portugal."
Dush,2.39,22.49,-54.02,22.51,22.47,-54,-54.04,"Crater, craters",mc10,Approved,Town in Egypt.
Du Toit,81.82,-71.62,-49.6,-70.93,-72.32,-47.39,-51.8,"Crater, craters",mc30,Approved,Alexander L.; South African geologist (1878-1948).
Dzeng,10.88,-80.51,-70.47,-80.42,-80.6,-69.89,-71,"Crater, craters",mc30,Approved,Town in Cameroon.
Dzígai Vallis,327.31,-58.1,-36.59,-55.71,-59.91,-33.56,-38.14,"Vallis, valles",mc26,Approved,"Word for ""valley"" in Navajo."
Eads,2.74,-28.48,-29.91,-28.46,-28.51,-29.88,-29.94,"Crater, craters",mc19,Approved,"Town in Colorado, USA."
Eagle,12.5,43.81,-8.17,43.91,43.7,-8.02,-8.31,"Crater, craters",mc04,Approved,"Town in Idaho, USA."
Eberswalde,62.19,-23.98,-33.3,-23.52,-24.44,-32.79,-33.81,"Crater, craters",mc19,Approved,Town in Germany.
Echt,2.15,-21.97,-28.19,-21.95,-21.99,-28.17,-28.21,"Crater, craters",mc19,Approved,Town in Scotland.
Echus Chaos,480.51,10.79,-74.72,14.75,6.82,-73.86,-76.95,"Chaos, chaoses",mc10,Approved,"From albedo feature Echus Lacus at 1N, 90W."
Echus Chasma,391.1,2.47,-79.96,5.74,-1.35,-77.43,-81.33,"Chasma, chasmata",mc10,Approved,Classical albedo feature name.
Echus Fossae,421.03,2.61,-76.75,6.55,-0.3,-75.42,-79.27,"Fossa, fossae",mc10,Approved,Classical albedo feature name.
Echus Montes,397.06,7.81,-77.95,11.09,4.56,-76.33,-79.09,"Mons, montes",mc10,Approved,Albedo feature name.
Echus Palus,715,12.29,-77.27,17.06,5.49,-74.31,-81.1,"Palus, paludes",mc10,Approved,"Classical albedo feature name, Echus Lacus."
Edam,19.49,-26.28,-20.04,-26.11,-26.44,-19.85,-20.22,"Crater, craters",mc19,Approved,Town in the Netherlands.
Eddie,86.38,12.32,142.2,13.05,11.6,142.94,141.45,"Crater, craters",mc15,Approved,Lindsay A.; South African astronomer (1845-1913).
Eden Patera,80,33.77,-11.06,34.38,33.2,-10.38,-11.72,"Patera, paterae",mc04,Approved,Classical albedo feature name.
Edom,0,0,15,0,0,15,15,Albedo Feature,,Approved,"Biblical country of Edomites, south of Judea."
Eger,12.25,-48.29,-51.87,-48.19,-48.4,-51.7,-52.02,"Crater, craters",mc26,Approved,Town in Hungary.
Ehden,57.4,8.23,119.01,8.71,7.75,119.5,118.52,"Crater, craters",mc14,Approved,Town in Lebanon.
Eil,5.56,41.73,-9.74,41.78,41.68,-9.68,-9.81,"Crater, craters",mc04,Approved,Town in Somalia.
Eilat,29.7,-56.53,50.2,-56.28,-56.78,50.66,49.75,"Crater, craters",mc27,Approved,Town in Israel. 
Ejriksson,46.63,-19.2,-173.83,-18.81,-19.59,-173.41,-174.24,"Crater, craters",mc16,Approved,Leif; Norse explorer (c. 1000).
Elath,13.23,45.87,-13.6,45.99,45.76,-13.44,-13.76,"Crater, craters",mc04,Approved,Town in Israel.
Elaver Vallis,178.92,-9.38,-49.52,-8.84,-10.19,-48.26,-50.71,"Vallis, valles",mc18,Approved,"Classical name for modern Allier River, France."
Electris,0,-44.66,170,-44.66,-44.66,170,170,Albedo Feature,mc29,Approved,Electra's island near River Eridanus; famous for amber formed from tears shed by Phaethon's sisters.
Electris Mons,104.47,-45.67,152.73,-44.99,-46.28,154,151.49,"Mons, montes",mc29,Approved,Classical albedo feature name.
Elim,43.63,-80.17,96.8,-79.8,-80.54,98.97,94.63,"Crater, craters",mc30,Approved,Town in South Africa.
Ellsley,10.94,36.29,-83.3,36.38,36.2,-83.18,-83.41,"Crater, craters",mc03,Approved,Town in England.
Elorza,45.16,-8.76,-55.21,-8.38,-9.14,-54.82,-55.59,"Crater, craters",mc18,Approved,Town in Venezuela.
Ely,10.43,-23.62,-27.3,-23.53,-23.7,-27.2,-27.4,"Crater, craters",mc19,Approved,"Town in Nevada, USA."
Elysium,0,24.74,150,24.74,24.74,150,150,Albedo Feature,mc15,Approved,Home of the blessed on western edge of world.
Elysium Catena,48.5,17.69,149.73,17.95,17.44,150.06,149.4,"Catena, catenae",mc15,Approved,Albedo feature name.
Elysium Chasma,130,22.39,141.51,23.28,21.46,142.41,141,"Chasma, chasmata",mc15,Approved,Albedo feature name.
Elysium Fossae,1044,24.08,146.14,28.78,16.21,151.58,135.51,"Fossa, fossae",mc15,Approved,Classical albedo feature name.
Elysium Mons,401,25.02,147.21,28.26,21.78,150.82,143.59,"Mons, montes",mc15,Approved,Classical albedo feature name.
Elysium Planitia,3000.79,2.98,154.74,11.4,-7.77,179.11,128.26,"Planitia, planitiae",mc15,Approved,Classical albedo feature name.
Elysium Rupes,140.5,25.24,148.04,26.11,24.09,148.2,147.31,"Rupes, rupēs",mc15,Approved,Albedo feature name.
E. Mareotis Tholus,4.6,35.92,-85.13,35.96,35.88,-85.09,-85.18,"Tholus, tholi",mc03,Approved,Classical albedo name.
Endeavour,21.78,-2.28,-5.2,-2.1,-2.47,-5.01,-5.38,"Crater, craters",mc19,Approved,Town in Canada.
Enipeus Vallis,527.07,36.8,-92.8,39.67,33.58,-92.57,-93.51,"Vallis, valles",mc03,Approved,Classical river.
Eos Chaos,497.85,-16.82,-46.52,-15.14,-19.08,-42.36,-50.97,"Chaos, chaoses",mc18,Approved,Greek name of Aurora; albedo feature.
Eos Chasma,1305.69,-12.15,-39.17,-6.19,-15.91,-29.05,-52.56,"Chasma, chasmata",mc19,Approved,Classical albedo feature name.
Eos Mensa,346.67,-11.01,-42.16,-8.27,-13.74,-39.46,-44.36,"Mensa, mensae",mc19,Approved,Classical albedo feature name.
Erebus Montes,811.67,35.66,-174.98,41.49,30.02,-168.68,-179.67,"Mons, montes",mc02,Approved,"From albedo feature at 26N, 182W."
Eridania,0,-44.66,140,-44.66,-44.66,140,140,Albedo Feature,mc29,Approved,"Region on the Po River, Italy."
Eridania Mons,143.29,-57.02,137.86,-55.9,-58.08,140.07,135.61,"Mons, montes",mc29,Approved,Classical albedo feature name.
Eridania Planitia,1062.13,-38.15,122.21,-32.65,-43.97,133.12,111.03,"Planitia, planitiae",mc29,Approved,Classical albedo feature name.
Eridania Scopulus,1017.66,-52.61,141.79,-46.32,-58.12,150.7,130.86,"Scopulus, scopuli",mc29,Approved,Classical albedo feature name.
Erythraea Fossa,155.19,-27.27,-30.94,-26.9,-27.58,-29.51,-32.35,"Fossa, fossae",mc19,Approved,Classical albedo feature name.
Erythraeum Chaos,147.63,-21.84,-12.38,-21,-22.44,-11.04,-13.7,"Chaos, chaoses",mc19,Approved,Classical albedo feature name.
Escalante,75.26,0.19,115.39,0.83,-0.44,116.03,114.76,"Crater, craters",mc14,Approved,F.; Mexican astronomer (c. 1930).
Escorial,22.24,76.89,-55.04,77.08,76.71,-54.21,-55.87,"Crater, craters",mc01,Approved,Town in Spain.
Esira,16.26,8.96,-46.61,9.09,8.82,-46.47,-46.75,"Crater, craters",mc10,Approved,Town in Madagascar.
Esk,3.67,45.21,-7.02,45.24,45.18,-6.98,-7.07,"Crater, craters",mc04,Approved,Town in Australia.
Espino,12.05,-19.69,110.34,-19.59,-19.79,110.45,110.23,"Crater, craters",mc22,Approved,Town in Venezuela.
Eudoxus,98.51,-44.52,-147.22,-43.69,-45.35,-146.05,-148.38,"Crater, craters",mc24,Approved,Greek astronomer (c. 408-355 B.C.).
Eumenides Dorsum,569.26,4.79,-156.4,9.47,-0.01,-155.06,-158.46,"Dorsum, dorsa",mc08,Approved,Classical albedo feature name.
Eunostos,0,21.77,-120,21.77,21.77,-120,-120,Albedo Feature,mc09,Approved,"""Lucky journey or lucky return""; i.e., infernal regions beyond Elysium."
Euphrates,0,19.78,25,19.78,19.78,25,25,Albedo Feature,mc12,Approved,Biblical fourth River of Paradise.
Euphrates Patera,20.27,38.43,10.26,38.59,38.27,10.5,10.06,"Patera, paterae",mc05,Approved,Classical albedo feature name.
Euripus Mons,88.91,-44.82,105.18,-44.22,-45.44,106.21,104.11,"Mons, montes",mc28,Approved,Albedo feature name.
Evpatoriya,1.04,46.95,134.36,46.96,46.94,134.37,134.35,"Crater, craters",mc07,Approved,Soviet tracking site (Soviet spelling used).
Evros Vallis,358.01,-12.65,13.83,-12.24,-13.01,16.36,11.5,"Vallis, valles",mc20,Approved,River in Greece.
Faith,5.3,42.92,-11.83,42.97,42.88,-11.77,-11.89,"Crater, craters",mc04,Approved,"Town in South Dakota, USA."
Falun,10.01,-23.96,-24.67,-23.87,-24.04,-24.58,-24.77,"Crater, craters",mc19,Approved,Town in Sweden.
Fancy,49.44,-35.45,113.6,-35.03,-35.87,114.09,113.11,"Crater, craters",mc28,Approved,Town in Saint Vincent and the Grenadines.
Faqu,12.25,-24.54,106.34,-24.44,-24.65,106.46,106.23,"Crater, craters",mc22,Approved,Town in Jordan.
Farah Vallis,76.37,-6.03,136.8,-5.49,-6.49,136.99,136.51,"Vallis, valles",mc23,Approved,River in Afghanistan.
Farim,3.92,-44.31,139.28,-44.28,-44.35,139.33,139.24,"Crater, craters",mc29,Approved,Town in the Republic of Guinea-Bissau.
Fastov,11.12,-25.04,-20.37,-24.94,-25.13,-20.27,-20.48,"Crater, craters",mc19,Approved,Town in Ukraine.
Felis Dorsa,244,-21.87,-65.9,-14.28,-28.16,-60.81,-70.75,"Dorsum, dorsa",mc18,Approved,Classical albedo feature name.
Fenagh,6.22,34.29,144.37,34.34,34.24,144.43,144.3,"Crater, craters",mc07,Approved,Town in Ireland.
Fesenkov,87.38,21.66,-86.53,22.4,20.93,-85.73,-87.31,"Crater, craters",mc10,Approved,Vasilii G.; Russian astrophysicist (1889-1972).
Firsoff,90,2.73,-9.37,3.43,1.95,-8.62,-10.13,"Crater, craters",mc11,Approved,Valdemar Axel; English astronomer (1910-1981).
Fitzroy,38.17,-35.69,112.06,-35.37,-36.01,112.46,111.66,"Crater, craters",mc28,Approved,Town in the Falkland Islands.
Flammarion,173.7,25.22,48.28,26.69,23.76,49.9,46.66,"Crater, craters",mc13,Approved,Camille; French astronomer (1842-1925).
Flat,3.04,-25.42,-19.55,-25.39,-25.44,-19.52,-19.58,"Crater, craters",mc19,Approved,"Town in Alaska, USA."
Flateyri,9.5,-35.86,-29.08,-35.78,-35.95,-28.98,-29.17,"Crater, craters",mc26,Approved,Village in Iceland.
Flaugergues,236.06,-16.8,19.22,-14.81,-18.79,21.3,17.14,"Crater, craters",mc20,Approved,Honore; French astronomer (1755-1835).
Floq,2.55,14.94,107.16,14.96,14.92,107.18,107.14,"Crater, craters",mc14,Approved,Town in Albania.
Flora,18.31,-44.67,-51.45,-44.51,-44.82,-51.23,-51.66,"Crater, craters",mc26,Approved,"Town in Mississippi, USA."
Focas,72.02,33.56,12.75,34.17,32.96,13.48,12.02,"Crater, craters",mc05,Approved,Jean H.; Greco-French astronomer (1909-1969).
Fontana,80.06,-62.91,-72.12,-62.23,-63.59,-70.62,-73.59,"Crater, craters",mc25,Approved,Francesco; Italian astronomer (1585-1646).
Foros,24.54,-33.4,-27.87,-33.19,-33.6,-27.62,-28.12,"Crater, craters",mc26,Approved,Town in Ukraine.
Fortuna Fossae,324.28,4.64,-92.69,7.15,1.83,-91.19,-94.44,"Fossa, fossae",mc09,Approved,Classical albedo feature name.
Fournier,114.28,-4.3,72.64,-3.34,-5.26,73.61,71.67,"Crater, craters",mc21,Approved,Georges; French astronomer (1881-1954).
Freedom,12.74,43.36,-8.98,43.47,43.25,-8.83,-9.13,"Crater, craters",mc04,Approved,"Town in Oklahoma, USA."
Frento Vallis,251.09,-50.03,-14.84,-49.69,-50.32,-12.01,-17.54,"Vallis, valles",mc26,Approved,Classical name for river in Italy.
Funchal,1.62,22.98,-49.44,22.99,22.97,-49.42,-49.45,"Crater, craters",mc10,Approved,Port of Madeira Islands.
Gaan,3.01,38.66,-3.4,38.69,38.64,-3.37,-3.44,"Crater, craters",mc04,Approved,Town in Somalia.
Gagra,13.41,-20.64,-22.1,-20.52,-20.75,-21.98,-22.22,"Crater, craters",mc19,Approved,Town in the Republic of Georgia.
Gah,2.78,-44.69,-32.64,-44.67,-44.72,-32.6,-32.67,"Crater, craters",mc26,Approved,Town in Indonesia.
Galap,5.99,-37.66,-167.07,-37.61,-37.71,-167.01,-167.13,"Crater, craters",mc24,Approved,Town in the Republic of Palau.
Galaxias Chaos,234.48,33.83,146.52,34.13,33.27,148.86,144.11,"Chaos, chaoses",mc07,Approved,Albedo feature name.
Galaxias Colles,610.34,36.8,147.48,42.17,33.61,152.69,139.97,"Collis, colles",mc07,Approved,Albedo feature name.
Galaxias Fluctūs,607.03,30.96,143.03,33.6,27.7,148.96,137.03,"Fluctus, fluctūs",mc07,Approved,Albedo feature name.
Galaxias Fossae,552,36.63,142,39.59,32.57,145.41,137.83,"Fossa, fossae",mc07,Approved,Albedo feature name.
Galaxius Mons,22.23,34.76,142.31,34.92,34.6,142.51,142.11,"Mons, montes",mc07,Approved,Classical albedo name.
Galdakao,33.44,-13.34,176.63,-13.06,-13.62,176.92,176.34,"Crater, craters",mc23,Approved,Euskadi (Basque) town in Spain.
Gale,154.08,-5.37,137.81,-4.07,-6.67,139.12,136.51,"Crater, craters",mc23,Approved,Walter F.; Australian astronomer (1865-1945).
Gali,25.86,-43.75,-37.19,-43.53,-43.97,-36.88,-37.48,"Crater, craters",mc26,Approved,Town in the Republic of Georgia.
Galilaei,137.17,5.72,-26.91,6.88,4.56,-25.74,-28.07,"Crater, craters",mc11,Approved,Galileo; Italian astronomer and physicist (1564-1642).
Galle,223.53,-50.63,-31,-48.78,-52.55,-28.03,-33.98,"Crater, craters",mc26,Approved,Johann G.; German astronomer (1812-1910).
Galu,13.57,-22.08,-21.67,-21.96,-22.19,-21.54,-21.79,"Crater, craters",mc19,Approved,Town in Zaire.
Gamboa,30.82,40.77,-44.36,41.03,40.51,-44.01,-44.7,"Crater, craters",mc04,Approved,Town in Panama.
Gan,20.63,61.72,-131,61.89,61.54,-130.65,-131.34,"Crater, craters",mc02,Approved,Town in the Republic of the Maldives.
Gander,36.08,-31.26,94.22,-30.95,-31.56,94.58,93.87,"Crater, craters",mc28,Approved,"Town in Newfoundland, Canada."
Gandu,9.49,-45.38,-47.28,-45.3,-45.46,-47.16,-47.39,"Crater, craters",mc26,Approved,Town in Brazil.
Gandzani,51.91,34.24,-90.83,34.65,33.83,-90.32,-91.34,"Crater, craters",mc03,Approved,Town in the Republic of Georgia.
Ganges Catena,81.27,-2.7,-68.78,-2.28,-3.23,-66.88,-70.89,"Catena, catenae",mc18,Approved,Classical albedo feature name.
Ganges Cavus,43.11,-10.09,-51.45,-9.82,-10.39,-51.09,-51.82,"Cavus, cavi",mc18,Approved,Classical albedo feature name.
Ganges Chaos,113.73,-9.76,-46.04,-8.8,-10.73,-45.43,-46.82,"Chaos, chaoses",mc18,Approved,Classical albedo feature name.
Ganges Chasma,574.08,-7.96,-47.89,-5.82,-10.74,-43,-52.77,"Chasma, chasmata",mc18,Approved,Classical albedo feature name.
Ganges Mensa,135.9,-7.23,-48.75,-6.57,-7.82,-47.44,-50.01,"Mensa, mensae",mc18,Approved,Classical albedo feature name.
Gardo,15.53,-26.67,-24.77,-26.53,-26.79,-24.63,-24.92,"Crater, craters",mc19,Approved,Town in Somalia.
Gari,9.43,-35.88,-71.23,-35.79,-35.95,-71.12,-71.32,"Crater, craters",mc25,Approved,Town in Russia.
Garm,4.8,48.25,-9.06,48.29,48.21,-9,-9.12,"Crater, craters",mc04,Approved,Town in Tadzhikistan.
Garni,2.57,-11.52,-69.69,-11.5,-11.54,-69.67,-69.71,"Crater, craters",mc18,Approved,Village in Armenia.
Garu,32,-6.39,141.28,-6.12,-6.65,141.56,140.99,"Crater, craters",mc23,Approved,Town in Ghana.
Gasa,7.03,-35.72,129.4,-35.66,-35.78,129.47,129.33,"Crater, craters",mc29,Approved,Town in Bhutan.
Gastre,7.1,24.61,112.53,24.67,24.55,112.59,112.46,"Crater, craters",mc14,Approved,Town in Argentina.
Gediz Vallis,8.3,-4.85,137.44,-4.77,-4.91,137.48,137.38,"Vallis, valles",mc23,Approved,River in Turkey.
Gehon,0,14.83,0,14.83,14.83,0,0,Albedo Feature,mc11,Approved,Biblical second River of Paradise; bordering Eden.
Gemina Lingula,772.89,81.87,2.59,85.03,78.54,49.6,-44.8,"Lingula, lingulae",mc01,Approved,Classical albedo feature name.
Gemini Scopuli,1000.36,80.39,26.1,84.36,78.48,110.86,-44.62,"Scopulus, scopuli",mc01,Approved,Classical albedo feature name.
Geryon Montes,377.83,-7.72,-81.62,-7.17,-8.5,-78.5,-84.81,"Mons, montes",mc18,Approved,Classical albedo feature.
Gigas Fossae,190,3.55,-129.56,4.86,2.33,-128.46,-130.43,"Fossa, fossae",mc09,Approved,Albedo feature name.
Gigas Sulci,418.56,10.02,-127.73,13.1,6.56,-125.6,-129.88,"Sulcus, sulci",mc09,Approved,Classical albedo feature name.
Gilbert,121.34,-68,86.08,-66.98,-69.02,88.82,83.35,"Crater, craters",mc30,Approved,Grove K.; American geologist (1843-1918).
Gill,83.17,15.76,5.55,16.46,15.06,6.28,4.82,"Crater, craters",mc12,Approved,David; British astronomer (1843-1914).
Glazov,22.02,-20.62,-26.59,-20.43,-20.8,-26.39,-26.79,"Crater, craters",mc19,Approved,Town in Russia.
Gledhill,78.47,-53.17,87.1,-52.51,-53.84,88.21,86,"Crater, craters",mc28,Approved,Joseph; British astronomer (1836-1906).
Glendore,8.23,18.34,-51.67,18.41,18.27,-51.59,-51.74,"Crater, craters",mc10,Approved,Town in Ireland.
Glide,9.85,-8.13,-43.18,-8.05,-8.21,-43.1,-43.26,"Crater, craters",mc19,Approved,"Town in Oregon, USA."
Globe,50.74,-23.68,-27.35,-23.26,-24.11,-26.88,-27.81,"Crater, craters",mc19,Approved,"Town in Arizona, USA."
Goba,10.9,-23.22,-21.01,-23.13,-23.31,-20.91,-21.11,"Crater, craters",mc19,Approved,Town in Ethiopia.
Goff,7.95,23.26,104.86,23.33,23.19,104.93,104.78,"Crater, craters",mc14,Approved,Town in Somalia.
Gokwe,2.16,-27.14,78.12,-27.12,-27.15,78.14,78.1,"Crater, craters",mc21,Approved,Town in Zimbabwe.
Gol,9.53,47.15,-10.64,47.24,47.08,-10.52,-10.76,"Crater, craters",mc04,Approved,Town in Norway.
Gold,8.91,20.03,-31.24,20.1,19.95,-31.16,-31.32,"Crater, craters",mc11,Approved,"Town in Pennsylvania, USA."
Golden,19.59,-22.01,-33.49,-21.84,-22.17,-33.31,-33.66,"Crater, craters",mc19,Approved,"Town in Illinois, USA."
Goldstone,1.03,47.77,134.58,47.78,47.76,134.59,134.57,"Crater, craters",mc07,Approved,American tracking site.
Gonnus Mons,49.38,41.21,-90.88,41.68,40.89,-90.53,-91.29,"Mons, montes",mc03,Approved,Classical town.
Gordii Dorsum,481.56,4.11,-144.14,7.63,0.69,-142.18,-146.25,"Dorsum, dorsa",mc08,Approved,Classical albedo feature name.
Gordii Fossae,369,14.83,-127.6,18.27,12.2,-126.56,-131,"Fossa, fossae",mc09,Approved,From classical albedo feature name.
Gorgonum Chaos,150.71,-37.26,-170.9,-35.99,-38.53,-169.55,-172.16,"Chaos, chaoses",mc24,Approved,"From albedo feature at 24S, 154W."
Gorgonum Mons,70,-35.34,-169.69,-34.93,-35.85,-169.1,-170.51,"Mons, montes",mc24,Approved,"Classical albedo feature name of Greek origin, Gorgonum Sinus."
Gori,6.43,-22.95,-28.83,-22.89,-23,-28.77,-28.89,"Crater, craters",mc19,Approved,town in the Republic of Georgia.
Graff,154.49,-21.18,153.81,-19.88,-22.48,155.21,152.42,"Crater, craters",mc23,Approved,Kasimir; German astronomer (1878-1950).
Granicus Valles,777.78,30.58,129.97,34.86,25.8,136.27,122.98,"Vallis, valles",mc07,Approved,Ancient name for river in Turkey.
Gratteri,7.56,-17.71,-160.06,-17.64,-17.77,-159.99,-160.12,"Crater, craters",mc16,Approved,"Town on the island of Sicily, Italy."
Greeley,457.45,-36.79,3.92,-32.92,-40.67,8.04,-0.2,"Crater, craters",mc27,Approved,Ronald; American geologist (1939-2011).
Green,182.07,-52.3,-8.54,-50.77,-53.84,-6.02,-11.05,"Crater, craters",mc26,Approved,Nathan E.; British astronomer (1823-1899).
Greg,68.12,-38.59,112.89,-38.02,-39.17,113.63,112.16,"Crater, craters",mc28,Approved,Percy; English writer (1836-1889).  
Grindavik,11.71,25.4,-38.99,25.5,25.3,-38.88,-39.1,"Crater, craters",mc11,Approved,Town in Iceland.
Gringauz,71.02,-20.67,-35.7,-20.07,-21.28,-35.09,-36.31,"Crater, craters",mc19,Approved,Konstantin Iosifovich; Russian cosmophysicist (1918–1993).
Grjótá Valles,343.77,15.38,166.38,16.17,12.86,168.54,163.55,"Vallis, valles",mc15,Approved,River in Iceland.
Grójec,37.31,-21.47,-30.84,-21.16,-21.79,-30.5,-31.18,"Crater, craters",mc19,Approved,Town in Poland.
Groves,10.27,-4.06,-44.55,-3.98,-4.15,-44.46,-44.64,"Crater, craters",mc19,Approved,"Town in Texas, USA."
Guaymas,20.12,25.66,-45.03,25.83,25.49,-44.84,-45.22,"Crater, craters",mc10,Approved,Town in Mexico.
Guir,18.2,-21.54,-20.5,-21.38,-21.69,-20.33,-20.66,"Crater, craters",mc19,Approved,Town in Mali.
Gulch,8.32,15.85,109.02,15.92,15.78,109.1,108.95,"Crater, craters",mc14,Approved,Town in Ethiopia.
Gunjur,26.85,-0.17,146.66,0.06,-0.4,146.89,146.44,"Crater, craters",mc23,Approved,Town in the Republic of Gambia.
Gunnison,39.57,-43.67,102.92,-43.34,-44,103.38,102.46,"Crater, craters",mc28,Approved,"Town in Colorado, USA."
Gusev,158.12,-14.53,175.52,-13.2,-15.86,176.91,174.15,"Crater, craters",mc23,Approved,Matvei M.; Russian astronomer (1826-1866).
Gwash,4.75,38.96,-3.16,39,38.92,-3.11,-3.21,"Crater, craters",mc04,Approved,Town in Pakistan.
Hadley,115.46,-19.26,156.97,-18.29,-20.24,158.01,155.94,"Crater, craters",mc23,Approved,George; British meteorologist (1685-1768).
Hadriaca Patera,66.04,-30.2,92.79,-29.63,-30.74,93.44,92.15,"Patera, paterae",mc28,Approved,Classical albedo feature name.
Hadriacus Cavi,59.09,-27.25,78.05,-27.02,-27.5,78.6,77.47,"Cavus, cavi",mc21,Approved,Classical albedo feature name.
Hadriacus Mons,450,-31.29,91.86,-28.12,-35.09,95.22,88.7,"Mons, montes",mc28,Approved,Classical albedo feature name.
Hadriacus Palus,176.33,-27.25,77.3,-26.39,-28.12,79,75.64,"Palus, paludes",mc21,Approved,Classical albedo feature name.
Halba,31.41,-26.01,-56.14,-25.75,-26.27,-55.84,-56.43,"Crater, craters",mc18,Approved,Town in Lebanon.
Haldane,76.75,-52.75,129.26,-52.1,-53.39,130.33,128.19,"Crater, craters",mc29,Approved,John B.; British physiologist-geneticist (1892-1964).
Hale,137.31,-35.69,-36.36,-34.53,-36.85,-34.94,-37.79,"Crater, craters",mc26,Approved,George E.; American astronomer (1868-1938).
Halex Fossae,147.25,27.35,-126.04,28.62,26.15,-125.46,-127.03,"Fossa, fossae",mc09,Approved,"From albedo feature at 40N, 110W."
Halley,83.72,-48.34,-59.27,-47.64,-49.05,-58.2,-60.32,"Crater, craters",mc26,Approved,Edmund; British astronomer (1656-1742).
Ham,1.59,-44.67,-32.5,-44.66,-44.69,-32.48,-32.51,"Crater, craters",mc26,Approved,Town in France.
Hamaguir,0.82,48.68,132.51,48.69,48.67,132.52,132.5,"Crater, craters",mc07,Approved,Algerian launch site.
Hamelin,9.74,20.25,-32.75,20.34,20.17,-32.66,-32.84,"Crater, craters",mc11,Approved,Old German town referred to in the Pied Piper fairy tale.
Handlová,4.39,37.69,-88.59,37.72,37.65,-88.54,-88.63,"Crater, craters",mc03,Approved,Town in Slovakia.
Harad̦,8.06,-27.46,-28.01,-27.38,-27.52,-27.93,-28.08,"Crater, craters",mc19,Approved,Town in Saudi Arabia.
Hargraves,60.28,20.74,75.74,21.25,20.23,76.29,75.2,"Crater, craters",mc13,Approved,Robert B.; American geoscientist (1928-2003).
Harmakhis Vallis,526.66,-40.98,90.06,-38.66,-43.05,94.34,85.49,"Vallis, valles",mc28,Approved,"Ancient Egyptian word for ""Mars."""
Harris,81.56,-21.9,66.81,-21.22,-22.59,67.55,66.07,"Crater, craters",mc21,Approved,Daniel Lester III; American astronomer (1919-1962).
Hartwell,1.7,18.53,77.72,18.54,18.51,77.73,77.7,"Crater, craters",mc13,Approved,"Town in Georgia, USA."
Hartwig,99.33,-38.66,-15.86,-37.82,-39.5,-14.78,-16.93,"Crater, craters",mc26,Approved,Ernst; German astronomer (1851-1923).
Hashir,16.15,3.19,85.01,3.33,3.06,85.15,84.88,"Crater, craters",mc13,Approved,Town in Turkey.
Havel Vallis,240.19,0.77,-57.46,2.04,0.02,-56.21,-59.19,"Vallis, valles",mc10,Approved,River in Germany.
Heaviside,83.28,-70.5,-95.22,-69.8,-71.21,-93.1,-97.31,"Crater, craters",mc30,Approved,Oliver; British physicist (1850-1925).
Hebes Chasma,316.74,-1.07,-76.06,0.15,-2.17,-73.3,-78.61,"Chasma, chasmata",mc18,Approved,Classical albedo feature name.
Hebes Mensa,112.46,-1.02,-76.78,-0.65,-1.41,-75.73,-77.76,"Mensa, mensae",mc18,Approved,Classical albedo feature; name of goddess of youth.
Hebrus Valles,325,19.88,126.74,22.34,17.41,128.21,125.18,"Vallis, valles",mc14,Approved,Ancient river in Greece.
Hecates Tholus,181.57,32.12,150.24,33.65,30.59,151.89,148.54,"Tholus, tholi",mc07,Approved,Classcial albedo feature name.
Hegemone Dorsum,143.63,-54.72,-44.9,-53.52,-55.85,-44.71,-45.59,"Dorsum, dorsa",mc26,Approved,One of the Graces.
Heimdal,10.49,68.33,-124.56,68.42,68.24,-124.31,-124.79,"Crater, craters",mc01,Approved,Town in Norway.
Heinlein,85.34,-64.48,116.31,-63.76,-65.2,117.98,114.64,"Crater, craters",mc28,Approved,Robert A.; American author (1907-1988).
Hellas,0,-39.67,70,-39.67,-39.67,70,70,Albedo Feature,mc28,Approved,Greece.
Hellas Chaos,590.62,-47.12,64.41,-45.19,-50.18,71.38,56.97,"Chaos, chaoses",mc28,Approved,Named for albedo feature Hellas.
Hellas Chasma,148,-34.64,65.47,-34.09,-35.01,66.91,63.95,"Chasma, chasmata",mc28,Approved,Classical albedo feature name.
Hellas Montes,159.65,-37.63,97.61,-36.57,-38.81,99.07,95.76,"Mons, montes",mc28,Approved,Albedo feature Hellas.
Hellas Planitia,2299.16,-42.43,70.5,-27.86,-55.42,96.12,45.58,"Planitia, planitiae",mc28,Approved,Classical albedo feature name.
Hellespontus,0,-49.67,35,-49.67,-49.67,35,35,Albedo Feature,mc27,Approved,The Dardanelles.
Hellespontus Montes,711.46,-44.37,42.76,-38.56,-50.5,44.72,40.96,"Mons, montes",mc27,Approved,Classical albedo feature name.
Helmholtz,111.26,-45.4,-21.27,-44.46,-46.34,-19.93,-22.6,"Crater, craters",mc26,Approved,Hermann von; German physicist (1821-1894).
Henbury,25.36,-63.49,-147.73,-63.28,-63.71,-147.25,-148.21,"Crater, craters",mc24,Approved,Town in Australia.
Henry,167.57,10.79,23.45,12.2,9.38,24.89,22.01,"Crater, craters",mc12,Approved,Paul; French astronomer (1848-1905). Prosper; French astronomer (1849-1903).
Henry Moore,65.47,-59.72,53.9,-59.18,-60.28,54.99,52.8,"Crater, craters",mc27,Approved,Henry J.; American astrogeologist (1928-1998).
Hephaestus Fossae,633.32,20.84,122.85,24.26,17.28,127.1,118.29,"Fossa, fossae",mc14,Approved,Classical albedo feature name.
Hephaestus Rupēs,1707.44,23.54,114.9,36.49,9.98,131.95,100.21,"Rupes, rupēs",mc14,Approved,"Named for classical albedo feature at 20N, 240W."
Hera Patera,32,18.45,-133.77,18.61,18.22,-133.52,-133.78,"Patera, paterae",mc09,Approved,"Greek goddess of women and marriage, one of the Olympians, wife of Zeus."
Herculaneum,34.71,19.31,-58.65,19.6,19.01,-58.34,-58.96,"Crater, craters",mc10,Approved,Town in Italy.
Her Desher Vallis,117.29,-25.08,-47.93,-24.59,-25.72,-47.22,-48.74,"Vallis, valles",mc18,Approved,Egyptian name for Mars.
Hermes Patera,37,18.33,-133.43,18.61,18.06,-133.08,-133.75,"Patera, paterae",mc09,Approved,"Greek god of trade, travelers, sports, the messenger of the gods, one of the Olympian gods, son of Zeus."
Hermus Vallis,53.32,-5.32,-147.81,-4.9,-5.73,-147.75,-147.82,"Vallis, valles",mc16,Approved,Classical name for river in ancient Lydia (modern Turkey).
Herschel,297.92,-14.48,129.89,-11.97,-16.99,132.49,127.3,"Crater, craters",mc22,Approved,John F.; British astronomer (1792-1871); William H.; British astronomer (1738-1822).
Hesperia,0,-19.78,120,-19.78,-19.78,120,120,Albedo Feature,mc22,Approved,"""The Occiden""; name for Italy (Greek); or Spain (Roman) or West area of Ethiopians where sun sank."
Hesperia Dorsa,818.25,-22.8,113.16,-17.64,-29.35,117.97,109.04,"Dorsum, dorsa",mc22,Approved,Albedo feature name.
Hesperia Planum,1601.73,-21.42,109.89,-7.99,-33.92,121.42,97.86,"Planum, plana",mc22,Approved,Classical albedo feature name.
Hesperus Tholus,135,-37.56,138.72,-36.59,-38.53,140.22,137.33,"Tholus, tholi",mc29,Approved,"Classical albedo feature, Hesperus."
Hibes Montes,140,3.79,171.34,4.72,2.81,172.35,170.54,"Mons, montes",mc15,Approved,"From albedo feature at 17N, 186W."
Hiddekel,0,14.83,15,14.83,14.83,15,15,Albedo Feature,mc12,Approved,"Tigris River, Babylonia; Biblical third River of Paradise."
Hiddekel Cavus,23.3,29.43,16.24,29.62,29.22,16.48,16.02,"Cavus, cavi",mc12,Approved,"Classical albedo feature name, Hiddekel."
Hiddekel Rupes,313,16.77,16.47,19.03,14.5,17.85,16.43,"Rupes, rupēs",mc12,Approved,"Classical albedo feature name, Hiddekel."
Himera Valles,175,-21.54,-22.66,-20.27,-22.61,-22,-23.55,"Vallis, valles",mc19,Approved,Ancient name for Italian river.
Hipparchus,94.81,-44.45,-151.2,-43.65,-45.25,-150.08,-152.32,"Crater, craters",mc24,Approved,Greek astronomer (c. 160-125 B.C.).
Hīt,7.09,47.06,138.35,47.12,47,138.44,138.26,"Crater, craters",mc07,Approved,Town in Iraq.
Holden,152.66,-26.04,-34.02,-24.75,-27.33,-32.58,-35.45,"Crater, craters",mc19,Approved,Edward S.; American astronomer (1846-1914).
Holmes,114.06,-74.86,66.55,-73.89,-75.82,70.24,62.87,"Crater, craters",mc30,Approved,Arthur; British geologist (1890-1965).
Honda,9.26,-22.4,-16.4,-22.32,-22.47,-16.31,-16.48,"Crater, craters",mc19,Approved,Town in Colombia.
Hooke,137.65,-44.92,-44.4,-43.76,-46.08,-42.75,-46.03,"Crater, craters",mc26,Approved,Robert; British physicist-astronomer (1635-1703).
Hope,7.26,44.84,-10.3,44.9,44.77,-10.2,-10.37,"Crater, craters",mc04,Approved,"Town in British Columbia, Canada."
Horarum Mons,20.5,-51.05,-36.56,-50.89,-51.22,-36.33,-36.77,"Mons, montes",mc26,Approved,Albedo name.
Horowitz,64.9,-32.06,140.75,-31.51,-32.61,141.4,140.11,"Crater, craters",mc29,Approved,Norman H.; American biologist and geneticist (1915-2005). 
Houston,1.98,48.23,135.95,48.24,48.21,135.97,135.92,"Crater, craters",mc07,Approved,American mission control site.
Hrad Vallis,974.4,38.17,135.91,42.3,33.87,141.96,128.85,"Vallis, valles",mc07,Approved,"Word for ""Mars"" in Armenian."
Hsūanch'eng,1.99,46.72,132.69,46.74,46.7,132.71,132.66,"Crater, craters",mc07,Approved,Chinese launch site.
Huallaga Vallis,92.5,-26.67,79.07,-26.24,-26.9,79.84,78.42,"Vallis, valles",mc21,Approved,River in Peru.
Huancayo,24.34,-3.64,-39.77,-3.43,-3.84,-39.56,-39.97,"Crater, craters",mc19,Approved,Town in Peru.
Huggins,82.64,-49.04,155.84,-48.34,-49.73,156.91,154.78,"Crater, craters",mc29,Approved,William; British astronomer (1824-1910).
Hunten,82.44,-39.18,23.69,-38.49,-39.86,24.59,22.79,"Crater, craters",mc27,Approved,Donald M.; American atmospheric physicist (1925-2010).
Huo Hsing Vallis,332.3,30.19,66.61,32.46,27.58,67.22,65.26,"Vallis, valles",mc06,Approved,"Word for ""Mars"" in Chinese."
Hussey,99.71,-53.32,-126.59,-52.49,-54.17,-125.18,-127.99,"Crater, craters",mc24,Approved,William J.; American astronomer (1862-1926).
Hutton,91.74,-71.63,104.6,-70.86,-72.41,107.06,102.15,"Crater, craters",mc30,Approved,James; British geologist (1726-1797).
Huxley,106.52,-62.67,100.77,-61.78,-63.57,102.73,98.81,"Crater, craters",mc28,Approved,Thomas H.; British biologist (1825-1895).
Huygens,467.25,-13.88,55.58,-9.94,-17.82,59.64,51.52,"Crater, craters",mc21,Approved,Christiaan; Dutch physicist-astronomer (1629-1695).
Hyblaeus Catena,10.49,21.6,140.62,21.6,21.6,140.71,140.52,"Catena, catenae",mc15,Approved,Albedo feature name.
Hyblaeus Chasma,56.61,21.98,141.26,22.5,21.58,141.62,140.72,"Chasma, chasmata",mc15,Approved,Albedo feature name.
Hyblaeus Dorsa,887.53,13.16,130.32,20.2,6.64,134.6,124.58,"Dorsum, dorsa",mc14,Approved,Named for albedo feature.
Hyblaeus Fossae,375,21.44,137.06,22.94,19.07,140.31,133.52,"Fossa, fossae",mc15,Approved,Albedo feature name.
Hydaspis Chaos,336.04,3.09,-26.93,4.48,1.56,-24.22,-29.85,"Chaos, chaoses",mc11,Approved,Classical albedo feature name.
Hydrae Cavus,64.5,-7.93,-61.31,-7.68,-8.16,-60.73,-61.81,"Cavus, cavi",mc18,Approved,Classical albedo feature name.
Hydrae Chaos,66,-5.9,-59.97,-5.6,-6.12,-59.51,-60.56,"Chaos, chaoses",mc18,Approved,Classical albedo feature name.
Hydrae Chasma,55.18,-6.75,-62.01,-6.31,-7.22,-61.53,-62.46,"Chasma, chasmata",mc18,Approved,Classical albedo feature name.
Hydraotes Chaos,419.04,1.12,-35.29,3.27,-1.26,-31.98,-39,"Chaos, chaoses",mc11,Approved,Classical albedo feature name.
Hydraotes Colles,47.5,-0.02,-33.68,0.29,-0.36,-33.47,-34.04,"Collis, colles",mc19,Approved,Classical albedo feature name.
Hypanis Valles,220,9.46,-46.42,11.27,8.35,-45.18,-48.28,"Vallis, valles",mc10,Approved,Classical name for river in Scythia; present Kuban River in Russia.
Hyperboreae Undae,463.65,79.96,-49.49,82.8,77.12,-43.98,-57.08,"Unda, undae",mc01,Approved,Classical albedo feature name.
Hyperborea Lingula,124.8,80.32,-53.54,81.33,79.24,-47.49,-59.81,"Lingula, lingulae",mc01,Approved,Classical albedo feature name.
Hyperborei Cavi,92.81,79.91,-49.7,80.62,79.22,-47.34,-52.63,"Cavus, cavi",mc01,Approved,Classical albedo feature name.
Hyperboreus Labyrinthus,111.97,80.28,-59.75,81.18,79.29,-57.59,-62.53,"Labyrinthus, labyrinthi",mc01,Approved,Classical albedo feature name.
Hyperboreus (Lacus),0,74.83,-60,74.83,74.83,-60,-60,Albedo Feature,mc01,Approved,Far northern lake.
Hypsas Vallis,36.47,33.63,57.99,33.79,33.61,58.29,57.79,"Vallis, valles",mc05,Approved,Classical name for river in Sicily.
Iamuna Chaos,21.72,-0.28,-40.61,-0.1,-0.47,-40.44,-40.76,"Chaos, chaoses",mc19,Approved,Classical albedo feature name.
Iamuna Dorsa,38.18,20.97,-50.4,21.28,20.67,-50.29,-50.44,"Dorsum, dorsa",mc10,Approved,From classical albedo feature Iamunae Sinus.
Iani Chaos,450.51,-2.19,-17.04,0.32,-5.28,-13.73,-21.27,"Chaos, chaoses",mc19,Approved,Classical albedo feature name.
Iapygia (Iapigia),0,-19.78,65,-19.78,-19.78,65,65,Albedo Feature,mc21,Approved,"Classically, Iapygia was all of Apulia, or just the Salentine Peninsula."
Iazu,6.83,-2.71,-5.18,-2.65,-2.76,-5.12,-5.23,"Crater, craters",mc19,Approved,Town in Romania.
Iberus Vallis,87.26,21.25,152.07,21.55,20.75,152.5,151.47,"Vallis, valles",mc15,Approved,Classical name for river present Ebro River in NE Spain.
Ibragimov,86.77,-25.43,-59.57,-24.7,-26.16,-58.75,-60.37,"Crater, craters",mc18,Approved,Nadir Baba Ogly; Soviet astronomer (1932-1977).
Icaria,0,-39.67,-130,-39.67,-39.67,-130,-130,Albedo Feature,mc24,Approved,Land where Icarus lived (Crete).
Icaria Fossae,2115.45,-48.09,-125.16,-33.6,-62.85,-105.41,-150.4,"Fossa, fossae",mc24,Approved,"From albedo feature at 44S, 130W."
Icaria Planum,566.59,-43.27,-106.04,-37.46,-48.04,-99.84,-111.61,"Planum, plana",mc25,Approved,Classical albedo feature name.
Icaria Rupes,159.81,-35.79,-139.68,-34.68,-36.89,-138.85,-140.46,"Rupes, rupēs",mc24,Approved,"Classical albedo feature name, Icaria."
Idaeus Fossae,202.01,37.33,-51.2,39.23,35.93,-49.16,-53.35,"Fossa, fossae",mc04,Approved,Classical albedo feature name.
Igal,8.83,-20.09,110.9,-20.02,-20.17,110.98,110.82,"Crater, craters",mc22,Approved,Town in Hungary. Name changed from Igol (incorrect spelling).
II Thyle I,0,-69.78,180,-69.78,-69.78,180,180,Albedo Feature,mc30,Approved,Named for Thule; may be middle Norway; used to indicate far northern lands.
Ikej,4.51,20.96,112.5,20.99,20.92,112.54,112.46,"Crater, craters",mc14,Approved,Town in Russia.
Imgr,3.42,19.12,111.18,19.15,19.1,111.21,111.15,"Crater, craters",mc14,Approved,Town in Russia.
Indus Vallis,342,18.95,38.88,20.41,18.59,41.77,36.58,"Vallis, valles",mc12,Approved,Ancient and modern name for river in Pakistan.
Innsbruck,59,-6.39,-39.96,-5.89,-6.89,-39.46,-40.46,"Crater, craters",mc19,Approved,Town in Austria.
Ins,2.78,24.49,108.9,24.51,24.46,108.93,108.87,"Crater, craters",mc14,Approved,Town in Switzerland.
Inta,16.12,-24.36,-25.1,-24.22,-24.49,-24.96,-25.25,"Crater, craters",mc19,Approved,Town in Russia.
Inuvik,20.52,78.59,-28.32,78.76,78.41,-27.44,-29.19,"Crater, craters",mc01,Approved,"Town in Northwest Territories, Canada."
Irbit,12.73,-24.34,-24.91,-24.23,-24.45,-24.79,-25.03,"Crater, craters",mc19,Approved,Town in Russia.
Irharen,6.48,34.49,140.82,34.55,34.44,140.89,140.76,"Crater, craters",mc07,Approved,Town in Algeria.
Isara Valles,5.36,-5.31,-146.42,-5.26,-5.38,-146.37,-146.49,"Vallis, valles",mc16,Approved,Classical name for modern Oise River in France.
Isidis Dorsa,1074.7,12.92,88.21,21.7,4.1,96.91,79.02,"Dorsum, dorsa",mc13,Approved,"Named for classical albedo feature at 25N, 270W."
Isidis Planitia,1224.58,13.94,88.38,22.59,3.2,98.91,77.62,"Planitia, planitiae",mc13,Approved,Classical albedo feature name.
Isil,77.12,-27.02,87.93,-26.37,-27.67,88.66,87.2,"Crater, craters",mc21,Approved,Town in Spain.
Ismeniae Fossae,286.91,41.31,38.35,43.62,39.13,41.57,35.17,"Fossa, fossae",mc05,Approved,"From albedo feature at 40N, 333W."
Ismenia Patera,82,38.55,1.8,39.23,37.95,2.65,0.92,"Patera, paterae",mc05,Approved,Classical albedo feature name.
Ismenius Cavus,90.61,33.9,17.08,34.73,33.18,17.71,16.45,"Cavus, cavi",mc05,Approved,Classical albedo feature name.
Ismenius Lacus,0,39.67,30,39.67,39.67,30,30,Albedo Feature,mc05,Approved,"""Ismenian Lake""; Ismenia is poetic term for Thebes."
Issedon Paterae,5.31,38.13,-90.25,38.38,37.78,-89.76,-90.68,"Patera, paterae",mc03,Approved,Classical albedo name.
Issedon Tholus,54.53,36.05,-94.83,36.51,35.6,-94.3,-95.29,"Tholus, tholi",mc03,Approved,Classical albedo name.
Ister Chaos,109.1,12.95,-56.56,13.69,11.98,-55.81,-56.98,"Chaos, chaoses",mc10,Approved,"From classical albedo feature at 10N, 56W."
Istok,4.82,-45.1,-85.82,-45.06,-45.14,-85.76,-85.87,"Crater, craters",mc25,Approved,Town in Kosovo.
Ituxi Vallis,123.07,25.45,153.32,25.95,24.92,154.31,152.55,"Vallis, valles",mc15,Approved,River in Brazil.
Ius Chasma,839.91,-7.29,-84.39,-5.77,-9.97,-77.47,-91.5,"Chasma, chasmata",mc18,Approved,Classical albedo feature name.
Ius Labes,61.18,-7.47,-78.46,-7.2,-7.79,-77.94,-78.98,"Labes, labēs",mc18,Approved,Classical albedo feature name.
Ius Mensa,160,-8.6,-75.32,-8,-9.16,-73.98,-76.67,"Mensa, mensae",mc18,Approved,"Classical martian albedo feature, Ius."
Izamal,57.5,3.78,1.62,4.27,3.3,2.09,1.15,"Crater, craters",mc12,Approved,Town in Mexico.
Izendy,22.26,-28.88,-101.44,-28.7,-29.07,-101.22,-101.65,"Crater, craters",mc17,Approved,Town in Russia.
Izola,2.7,-26.11,54.1,-26.08,-26.13,54.12,54.07,"Crater, craters",mc21,Approved,Town in Slovenia.
Izola Mensa,10.8,-25.89,54.29,-25.8,-25.98,54.34,54.23,"Mensa, mensae",mc21,Approved,Named for nearby crater Izola.
Jaisalmer,15,33.49,84.14,33.62,33.37,84.29,84,"Crater, craters",mc06,Approved,Town in India.
Jal,4.81,-26.25,-28.76,-26.21,-26.29,-28.72,-28.81,"Crater, craters",mc19,Approved,"Town in New Mexico, USA."
Jama,2.9,21.39,-53.18,21.42,21.37,-53.15,-53.21,"Crater, craters",mc10,Approved,Town in Tunisia.
Jampur,27.9,38.71,-81.55,38.95,38.48,-81.24,-81.84,"Crater, craters",mc03,Approved,Town in Pakistan.
Jamuna,0,9.88,-40,9.88,9.88,-40,-40,Albedo Feature,mc11,Approved,"Present Jumna River, India."
Janssen,153.63,2.69,37.61,3.99,1.4,38.91,36.31,"Crater, craters",mc12,Approved,Pierre Jules César; French astronomer (1824-1907).
Jarry-Desloges,93.36,-9.37,83.85,-8.59,-10.16,84.65,83.06,"Crater, craters",mc21,Approved,Rene; French astronomer (1868-1951).
Jeans,73.6,-69.64,154.18,-69.01,-70.26,155.98,152.39,"Crater, craters",mc30,Approved,"James H.; British physicist, astronomer (1877-1946)."
Jen,8.88,39.88,-10.57,39.96,39.81,-10.48,-10.67,"Crater, craters",mc04,Approved,Town in Nigeria.
Jezero,47.52,18.41,77.69,18.81,18.01,78.11,77.27,"Crater, craters",mc13,Approved,Town in Bosnia-Herzegovina.
Jezža,9.22,-48.42,-37.92,-48.34,-48.5,-37.8,-38.04,"Crater, craters",mc26,Approved,Town in Russia.
Jiji,21,8.77,-1.74,8.95,8.59,-1.56,-1.93,"Crater, craters",mc11,Approved,Town in Taiwan.
Jijiga,16.16,25.11,-53.95,25.25,24.98,-53.8,-54.11,"Crater, craters",mc10,Approved,Town in Ethiopia.
Jodrell,3.02,47.47,132.3,47.5,47.44,132.34,132.27,"Crater, craters",mc07,Approved,United Kingdom tracking site.
Johannesburg,1.22,47.92,133.19,47.93,47.91,133.2,133.17,"Crater, craters",mc07,Approved,Republic of South Africa tracking site.
Johnstown,3.36,-9.8,-51.07,-9.78,-9.83,-51.04,-51.09,"Crater, craters",mc18,Approved,"Town in Pennsylvania, USA."
Jojutla,19.32,81.59,-169.8,81.75,81.43,-168.67,-170.9,"Crater, craters",mc01,Approved,Town in Mexico.
Joly,76.99,-74.5,-42.69,-73.85,-75.15,-40.23,-45.1,"Crater, craters",mc30,Approved,John; Irish geologist (1857-1933).
Jones,90.11,-18.88,-19.83,-18.12,-19.64,-19.02,-20.62,"Crater, craters",mc19,Approved,Harold S.; British astronomer (1890-1960).
Jori,31,-28.38,83.4,-28.12,-28.65,83.71,83.13,"Crater, craters",mc21,Approved,Town in Republic of Korea.
Jörn,20.47,-27.19,76.43,-27.02,-27.36,76.62,76.23,"Crater, craters",mc21,Approved,Town in Sweden.
Jovis Fossae,348.63,19.77,-115.83,22.65,16.77,-114.42,-117.75,"Fossa, fossae",mc09,Approved,"From albedo feature at 16N, 111W."
Jovis Tholus,58.07,18.2,-117.41,18.67,17.81,-116.9,-117.93,"Tholus, tholi",mc09,Approved,Classical albedo feature name.
Jumla,49.23,-21.29,86.44,-20.88,-21.71,86.89,86,"Crater, craters",mc21,Approved,Town in Nepal.
